name,lat,lng,nome
Agliè,45.3659088134316,7.775987256222135,agliè
Airasca,44.92176386791776,7.48350595266404,airasca
Ala di Stura,45.30680791540952,7.282044598847037,ala di stura
Albiano d'Ivrea,45.43159061319236,7.9436598332494865,albiano d'ivrea
Almese,45.118005649899665,7.420163755980974,almese
Alpette,45.40664507405341,7.576383708694702,alpette
Alpignano,45.10086310460086,7.516940196800672,alpignano
Andezeno,45.035838338753884,7.866333662674354,andezeno
Andrate,45.547009656854264,7.886117712848571,andrate
Angrogna,44.86097789478608,7.177021392281756,angrogna
Arignano,45.03776838084171,7.898999043158308,arignano
Avigliana,45.07509387268619,7.392070090134995,avigliana
Azeglio,45.42290112842588,7.992268780852444,azeglio
Bairo,45.37674325349788,7.7477605942085885,bairo
Balangero,45.276940914477024,7.520151845976991,balangero
Baldissero Canavese,45.40552717503246,7.744749824794706,baldissero canavese
Baldissero Torinese,45.0700207893338,7.8043513361765795,baldissero torinese
Balme,45.30001941256726,7.187206047564379,balme
Banchette,45.45824178419362,7.854708650576787,banchette
Barbania,45.294346928138246,7.6203610607985635,barbania
Bardonecchia,45.10090922375341,6.7315902045209235,bardonecchia
Barone Canavese,45.31827534434045,7.865301116238784,barone canavese
Beinasco,45.016224115379195,7.589856593067827,beinasco
Bibiana,44.78795926590006,7.283012401076474,bibiana
Bobbio Pellice,44.784625508950484,7.0665112523545615,bobbio pellice
Bollengo,45.465716325631156,7.948531515621382,bollengo
Borgaro Torinese,45.14685203246277,7.663724930595101,borgaro torinese
Borgiallo,45.427748004463325,7.659802733407793,borgiallo
Borgofranco d'Ivrea,45.51457877644545,7.850888862560079,borgofranco d'ivrea
Borgomasino,45.362448175680385,7.979924734102777,borgomasino
Borgone Susa,45.12178513678142,7.244690144878343,borgone susa
Bosconero,45.26985698247085,7.767159552046754,bosconero
Brandizzo,45.173666871353646,7.834002664800378,brandizzo
Bricherasio,44.83218136827647,7.297703169564951,bricherasio
Brosso,45.51111907260475,7.797712795189298,brosso
Brozolo,45.114230725235934,8.069915241007266,brozolo
Bruino,45.01421643161885,7.474038125957172,bruino
Brusasco,45.15150977090533,8.062388021883205,brusasco
Bruzolo,45.15803464896408,7.198495938581188,bruzolo
Buriasco,44.87454226490438,7.42374199042565,buriasco
Burolo,45.48496325264519,7.927717693662104,burolo
Busano,45.32299042803885,7.661161601480853,busano
Bussoleno,45.13157659555554,7.136404418637647,bussoleno
Buttigliera Alta,45.073757379977515,7.43528182045925,buttigliera alta
Cafasse,45.24423127161627,7.508088134135932,cafasse
Caluso,45.28142930440234,7.882605712016453,caluso
Cambiano,44.96943831330202,7.765265085221785,cambiano
Campiglione Fenile,44.80471994941454,7.327530428966983,campiglione fenile
Candia Canavese,45.330448005122825,7.897384281153495,candia canavese
Candiolo,44.96370511272082,7.5780254720980125,candiolo
Canischio,45.380701718857566,7.577903021375962,canischio
Cantalupa,44.951379481771255,7.332874551114866,cantalupa
Cantoira,45.35068129843986,7.3880776272384034,cantoira
Caprie,45.13407369224933,7.341026387853194,caprie
Caravino,45.39930650846272,7.961085002062126,caravino
Carema,45.58577656962433,7.830962966921275,carema
Carignano,44.89745856025117,7.661558392558105,carignano
Carmagnola,44.85841612636046,7.735316007282276,carmagnola
Casalborgone,45.12959669274987,7.935411957845148,casalborgone
Cascinette d'Ivrea,45.48127139736467,7.907926746179904,cascinette d'ivrea
Caselette,45.10643175682222,7.470582745293467,caselette
Caselle Torinese,45.177496387528954,7.65117789368643,caselle torinese
Castagneto Po,45.16267122464919,7.8931305086361805,castagneto po
Castagnole Piemonte,44.89499223974847,7.566499303287339,castagnole piemonte
Castellamonte,45.404481130533874,7.715671973159413,castellamonte
Castelnuovo Nigra,45.46610811417028,7.678783018182391,castelnuovo nigra
Castiglione Torinese,45.11289020570525,7.803497281418749,castiglione torinese
Cavagnolo,45.14579206619034,8.034175185675654,cavagnolo
Cavour,44.794689593348096,7.388567396029574,cavour
Cercenasco,44.8662616782891,7.502880346077697,cercenasco
Ceres,45.32081872175338,7.3620406195476775,ceres
Ceresole Reale,45.4443397787791,7.1908443540005305,ceresole reale
Cesana Torinese,44.92776027995026,6.820267857533964,cesana torinese
Chialamberto,45.37766175721273,7.339506083442743,chialamberto
Chianocco,45.16643286753657,7.170639660146317,chianocco
Chiaverano,45.504283455691244,7.902185176452693,chiaverano
Chieri,45.00362856369723,7.827561340149277,chieri
Chiesanuova,45.42278328034506,7.647985832083002,chiesanuova
Chiomonte,45.10211619431074,6.985943126100963,chiomonte
Chiusa di San Michele,45.09873713193936,7.322622657124052,chiusa di san michele
Chivasso,45.20570217272243,7.895872090256263,chivasso
Ciconio,45.329726579034315,7.761157454776552,ciconio
Cintano,45.440897590531776,7.681532701616642,cintano
Cinzano,45.09293757963831,7.922446721375516,cinzano
Ciriè,45.219712607780636,7.591541336289658,ciriè
Claviere,44.927184566708604,6.757051993483259,claviere
Coassolo Torinese,45.32522754749162,7.465625920195263,coassolo torinese
Coazze,45.050828918029275,7.2318209968074925,coazze
Collegno,45.09134830336741,7.590552165440105,collegno
Colleretto Castelnuovo,45.43965024472374,7.668720963914152,colleretto castelnuovo
Colleretto Giacosa,45.43043789296707,7.813103041193312,colleretto giacosa
Condove,45.1571265830175,7.272012454502408,condove
Corio,45.32931522173071,7.5190112362622745,corio
Cossano Canavese,45.3861445126688,8.000422916840856,cossano canavese
Cuceglio,45.35782426107676,7.812718693541861,cuceglio
Cumiana,44.96771158895216,7.384407173305116,cumiana
Cuorgnè,45.39956765209645,7.632249859375943,cuorgnè
Druento,45.15265759068297,7.568819013972176,druento
Exilles,45.106512886692215,6.919007415797217,exilles
Favria,45.310477334792395,7.685404147829221,favria
Feletto,45.2954217672377,7.758295262109179,feletto
Fenestrelle,45.0221821633498,7.058487085454849,fenestrelle
Fiano,45.21218176210459,7.5280633787000015,fiano
Fiorano Canavese,45.466241825888126,7.8295237417048185,fiorano canavese
Foglizzo,45.26707496337936,7.823153830891167,foglizzo
Forno Canavese,45.34742313264754,7.567132935131362,forno canavese
Frassinetto,45.46345013104322,7.620096809789122,frassinetto
Front,45.27353146523683,7.668281176913484,front
Frossasco,44.93446830880356,7.357228413453465,frossasco
Garzigliana,44.833370538770204,7.367898100612002,garzigliana
Gassino Torinese,45.11746677778027,7.838179362447866,gassino torinese
Germagnano,45.25229349314119,7.4560889515801625,germagnano
Giaglione,45.150103494094765,6.953134469348209,giaglione
Giaveno,45.024934461261076,7.304837688284544,giaveno
Givoletto,45.16242414423398,7.494080184132917,givoletto
Gravere,45.10681663547782,7.028898744941929,gravere
Groscavallo,45.3673920749938,7.229831767967225,groscavallo
Grosso,45.266609934063,7.563694793267356,grosso
Grugliasco,45.05524521209854,7.593559119421318,grugliasco
Ingria,45.4775842056196,7.587208664924857,ingria
Inverso Pinasca,44.93365374319531,7.213940870940908,inverso pinasca
Isolabella,44.90420885577348,7.910761572384918,isolabella
Issiglio,45.44884931345024,7.736394933061395,issiglio
Ivrea,45.454303588039636,7.891131157448362,ivrea
La Cassa,45.18006917783797,7.518430949377946,la cassa
La Loggia,44.95333152378311,7.676103652553003,la loggia
Lanzo Torinese,45.27544938481448,7.480501312102065,lanzo torinese
Lauriano,45.152873346264165,7.988975630052544,lauriano
Leini,45.187439382260514,7.720082962687792,leini
Lemie,45.22773278051805,7.2839882704651115,lemie
Lessolo,45.48253378300936,7.822085604311165,lessolo
Levone,45.3202408239992,7.601760213694879,levone
Locana,45.43646819048492,7.410625937182737,locana
Lombardore,45.23491181256882,7.7274011371565265,lombardore
Lombriasco,44.84422739747001,7.636055374541476,lombriasco
Loranzè,45.44564845412828,7.808921838069764,loranzè
Luserna San Giovanni,44.80607770757865,7.237912595130566,luserna san giovanni
Lusernetta,44.795313240187575,7.244020937759855,lusernetta
Lusigliè,45.311182942442834,7.770222016344,lusigliè
Macello,44.849610379330606,7.415785414163255,macello
Maglione,45.35086229447844,8.009928774650914,maglione
Marentino,45.06480145323418,7.878931339316972,marentino
Massello,44.96874488574784,7.023603047012954,massello
Mathi,45.261400765915106,7.543590768320458,mathi
Mattie,45.096307575825485,7.106902461850411,mattie
Mazzè,45.284406334379206,7.939346243314831,mazzè
Meana di Susa,45.1005712372013,7.06548117570718,meana di susa
Mercenasco,45.35659174549285,7.869585590154197,mercenasco
Mezzenile,45.282339038703995,7.366852473378911,mezzenile
Mombello di Torino,45.04310429352505,7.917968616813619,mombello di torino
Mompantero,45.16857291242462,7.07603640611483,mompantero
Monastero di Lanzo,45.32396095013365,7.431358570871705,monastero di lanzo
Moncalieri,44.988121011473204,7.702696082774826,moncalieri
Moncenisio,45.20440101995876,6.984322691929303,moncenisio
Montaldo Torinese,45.066910230756505,7.85316692063402,montaldo torinese
Montalenghe,45.33115417519207,7.8341102639420015,montalenghe
Montalto Dora,45.49395392097655,7.862804472360404,montalto dora
Montanaro,45.23450572940794,7.849999144120002,montanaro
Monteu da Po,45.16239880513881,8.015375447982462,monteu da po
Moriondo Torinese,45.03479120970862,7.9364835715134125,moriondo torinese
Nichelino,44.989941367216126,7.6240536947816935,nichelino
Noasca,45.465232094235695,7.301632738881397,noasca
Nole,45.24366275295399,7.567957704207996,nole
Nomaglio,45.54227152321788,7.860907196995817,nomaglio
None,44.93998406403799,7.548846573173137,none
Novalesa,45.195541292531175,7.03453093802628,novalesa
Oglianico,45.31719652190367,7.691579970217555,oglianico
Orbassano,45.00629918526745,7.55545470697157,orbassano
Orio Canavese,45.32586280620258,7.853948106581426,orio canavese
Osasco,44.848617395250834,7.348437135235284,osasco
Osasio,44.87423313587785,7.609388846010161,osasio
Oulx,45.04461436221856,6.79787165053794,oulx
Ozegna,45.34441613454382,7.748964968283976,ozegna
Palazzo Canavese,45.456465068484846,7.979898817338431,palazzo canavese
Pancalieri,44.832190591102815,7.5841545706656515,pancalieri
Parella,45.42310142248373,7.795630277190487,parella
Pavarolo,45.07670448484754,7.832916123495129,pavarolo
Pavone Canavese,45.42933828542528,7.8508892734236,pavone canavese
Pecetto Torinese,45.01815912026672,7.752713661387912,pecetto torinese
Perosa Argentina,44.982216224454426,7.187840368519108,perosa argentina
Perosa Canavese,45.407520378107414,7.8347678517551875,perosa canavese
Perrero,44.923531077442696,7.122136281910281,perrero
Pertusio,45.35023554354312,7.639989627876184,pertusio
Pessinetto,45.28695868544988,7.427069664212644,pessinetto
Pianezza,45.11387119370929,7.553880315147512,pianezza
Pinasca,44.96719576492831,7.247027002827505,pinasca
Pinerolo,44.89128700970234,7.347542864450638,pinerolo
Pino Torinese,45.04435213273339,7.777544063362388,pino torinese
Piobesi Torinese,44.92033834592826,7.603449328067331,piobesi torinese
Piossasco,44.98689045071306,7.448988247288339,piossasco
Piscina,44.92046889842588,7.426204849045086,piscina
Piverone,45.44090698123094,8.009251006901073,piverone
Poirino,44.9024682952245,7.842728695926877,poirino
Pomaretto,44.95036907677301,7.178163403969384,pomaretto
Pont-Canavese,45.432349278338336,7.585677216764928,pont-canavese
Porte,44.8945873812748,7.26751086609198,porte
Pragelato,44.983194485696664,6.945905841140651,pragelato
Prali,44.8819436595561,7.044676438588811,prali
Pralormo,44.85286893170888,7.8972171162218805,pralormo
Pramollo,44.901052892127105,7.190675744182435,pramollo
Prarostino,44.86612197918264,7.2652295997690866,prarostino
Prascorsano,45.363803287295795,7.618475005629232,prascorsano
Pratiglione,45.36173310939202,7.578089393261029,pratiglione
Quagliuzzo,45.424081321120084,7.780609890969577,quagliuzzo
Quassolo,45.5251295673726,7.82716947629943,quassolo
Quincinetto,45.55711182849656,7.778825607665959,quincinetto
Reano,45.05308756139823,7.428668431926629,reano
Ribordone,45.45279803662084,7.480289800685924,ribordone
Rivalba,45.12311899867922,7.8894842392720665,rivalba
Rivalta di Torino,45.02230228979433,7.519671561514178,rivalta di torino
Riva presso Chieri,44.97936930504709,7.888742770914025,riva presso chieri
Rivara,45.32551530099483,7.6329784505601355,rivara
Rivarolo Canavese,45.3041843923679,7.72482720997179,rivarolo canavese
Rivarossa,45.25325156765919,7.702311740149628,rivarossa
Rivoli,45.066930154024654,7.52353412113833,rivoli
Robassomero,45.19081691145558,7.577861298093831,robassomero
Rocca Canavese,45.3083960086221,7.575023647966923,rocca canavese
Roletto,44.920767847778485,7.335571092370077,roletto
Romano Canavese,45.40020563730006,7.870669012509418,romano canavese
Ronco Canavese,45.507535729861054,7.498072417530113,ronco canavese
Rondissone,45.246242697163275,7.961126281829722,rondissone
Rorà,44.7795699445267,7.190129356455365,rorà
Roure,45.0110547789456,7.127407302389108,roure
Rosta,45.07536332024008,7.466535466224904,rosta
Rubiana,45.15593263138797,7.374861565142506,rubiana
Rueglio,45.473493856362865,7.737940732163361,rueglio
Salassa,45.35893155734616,7.69254288684278,salassa
Salbertrand,45.07501741124661,6.882839631516114,salbertrand
Salerano Canavese,45.457799167787186,7.84274641227884,salerano canavese
Salza di Pinerolo,44.935438072909676,7.030193950623074,salza di pinerolo
Samone,45.44712865277716,7.838970429998351,samone
San Benigno Canavese,45.232050767050715,7.786187165651102,san benigno canavese
San Carlo Canavese,45.25475714977197,7.617517261868495,san carlo canavese
San Colombano Belmonte,45.386127916680934,7.608815232819186,san colombano belmonte
San Didero,45.13444643373219,7.217135981917761,san didero
San Francesco al Campo,45.22983229607114,7.6667065536737615,san francesco al campo
Sangano,45.02353918520875,7.444815165014806,sangano
San Germano Chisone,44.889002440518325,7.235930123921763,san germano chisone
San Gillio,45.13853755365121,7.523882685559628,san gillio
San Giorgio Canavese,45.32135925624407,7.799683861757133,san giorgio canavese
San Giorio di Susa,45.09518785561415,7.173199389229712,san giorio di susa
San Giusto Canavese,45.298390348706846,7.807264974216703,san giusto canavese
San Martino Canavese,45.39687330103673,7.809199034323374,san martino canavese
San Maurizio Canavese,45.20462664481187,7.635786711856606,san maurizio canavese
San Mauro Torinese,45.10359260935082,7.765323822820482,san mauro torinese
San Pietro Val Lemina,44.92868069961985,7.289368192892292,san pietro val lemina
San Ponso,45.34670815435619,7.664584377159042,san ponso
San Raffaele Cimena,45.15190593369929,7.855774035821153,san raffaele cimena
San Sebastiano da Po,45.15977390941994,7.944212947825164,san sebastiano da po
San Secondo di Pinerolo,44.85991629275626,7.3033814103789165,san secondo di pinerolo
Sant'Ambrogio di Torino,45.0969584885413,7.358547858818752,sant'ambrogio di torino
Sant'Antonino di Susa,45.09347131372001,7.265532751532636,sant'antonino di susa
Santena,44.94435819987036,7.782560011688601,santena
Sauze di Cesana,44.89751184511167,6.926501753271015,sauze di cesana
Sauze d'Oulx,45.018056922662915,6.869989973192033,sauze d'oulx
Scalenghe,44.89312922711466,7.4872548247652295,scalenghe
Scarmagno,45.38239907910981,7.845615302001401,scarmagno
Sciolze,45.0990855461584,7.876299345470324,sciolze
Sestriere,44.960141254825935,6.88259544749461,sestriere
Settimo Rottaro,45.40647695518991,7.992849735839156,settimo rottaro
Settimo Torinese,45.14582175741339,7.773701715632495,settimo torinese
Settimo Vittone,45.56742197877411,7.856304597105283,settimo vittone
Sparone,45.40877944259544,7.531816320863618,sparone
Strambinello,45.41737325917322,7.767398177699014,strambinello
Strambino,45.38351802910083,7.903160532043491,strambino
Susa,45.135068007616105,7.075082679993371,susa
Tavagnasco,45.54145069308096,7.805653733422289,tavagnasco
Torino,45.07169899473133,7.677941343292027,torino
Torrazza Piemonte,45.21835955518916,7.978915567039753,torrazza piemonte
Torre Canavese,45.397965472354144,7.76266597635497,torre canavese
Torre Pellice,44.824521305202914,7.195724825076502,torre pellice
Trana,45.029143113781835,7.405317988103854,trana
Traversella,45.5279604744735,7.696028118409366,traversella
Traves,45.26189343195902,7.4195361548232235,traves
Trofarello,44.97534597658267,7.744652327372383,trofarello
Usseaux,45.04920240954392,7.007747666210199,usseaux
Usseglio,45.227815841942096,7.170647637871188,usseglio
Vaie,45.095462220610735,7.29396375173867,vaie
Val della Torre,45.15410325276041,7.4469860063019295,val della torre
Valgioie,45.07671485936102,7.333505931051296,valgioie
Vallo Torinese,45.226029380190326,7.482634103815152,vallo torinese
Valperga,45.3682658303269,7.660023858450973,valperga
Valprato Soana,45.55364200139639,7.541784435246814,valprato soana
Varisella,45.19922087560199,7.473468207250013,varisella
Vauda Canavese,45.27773437247224,7.6384983878058454,vauda canavese
Venaus,45.17253873347519,6.988197085242478,venaus
Venaria Reale,45.140739649485916,7.619095030005321,venaria reale
Verolengo,45.197836235512064,7.985253909374813,verolengo
Verrua Savoia,45.15840335734913,8.106185743689958,verrua savoia
Vestignè,45.38919086533638,7.940219679990599,vestignè
Vialfrè,45.37706261443034,7.814899415272003,vialfrè
Vidracco,45.427959914997444,7.7480230067443845,vidracco
Vigone,44.83744257253708,7.496603008569848,vigone
Villafranca Piemonte,44.79579994422612,7.485126101329462,villafranca piemonte
Villanova Canavese,45.23670243030557,7.547578797904137,villanova canavese
Villarbasse,45.04456898524669,7.473840457978163,villarbasse
Villar Dora,45.114773550768874,7.3786928467191135,villar dora
Villareggia,45.2918005675741,7.975549888950589,villareggia
Villar Focchiardo,45.09346171002861,7.212878479138355,villar focchiardo
Villar Pellice,44.78900205753027,7.134810453815412,villar pellice
Villar Perosa,44.919391353251406,7.259801868504065,villar perosa
Villastellone,44.91677712634127,7.740227108796956,villastellone
Vinovo,44.95537154491989,7.628844612715107,vinovo
Virle Piemonte,44.862180889184884,7.575808537657409,virle piemonte
Vische,45.34252598846715,7.939339502776166,vische
Vistrorio,45.4450649266199,7.752237075425865,vistrorio
Viù,45.2252827608526,7.3729547915041405,viù
Volpiano,45.19461713896847,7.783748658735641,volpiano
Volvera,44.95980422764782,7.5089243330719615,volvera
Mappano,45.15096308023242,7.703878711744537,mappano
Alagna Valsesia,45.84322590221674,7.917014960240921,alagna valsesia
Albano Vercellese,45.42522959615692,8.381064919192657,albano vercellese
Alice Castello,45.36935631747981,8.085588108689391,alice castello
Arborio,45.491371778708015,8.375206547840621,arborio
Asigliano Vercellese,45.26479783105058,8.410972186175504,asigliano vercellese
Balmuccia,45.820936944758046,8.141688624874863,balmuccia
Balocco,45.461276200750724,8.285100668674795,balocco
Bianzè,45.29980696712736,8.142258850934212,bianzè
Boccioleto,45.83196344435096,8.081234475828328,boccioleto
Borgo d'Ale,45.35064198564317,8.052698133692692,borgo d'ale
Borgosesia,45.73083796047041,8.259558756838215,borgosesia
Borgo Vercelli,45.36054443773444,8.466470713137598,borgo vercelli
Buronzo,45.48426070670518,8.263858636249436,buronzo
Campertogno,45.791109415422405,7.9910628368859085,campertogno
Carcoforo,45.914241429048346,8.041707071509878,carcoforo
Caresana,45.22139869191398,8.509052283026378,caresana
Caresanablot,45.360444803028216,8.380676850106694,caresanablot
Carisio,45.4247376760992,8.206180290474464,carisio
Casanova Elvo,45.39808861510026,8.290796380191122,casanova elvo
San Giacomo Vercellese,45.489879712406534,8.329751900990392,san giacomo vercellese
Cervatto,45.87425182522083,8.142922316802224,cervatto
Cigliano,45.287584412725664,8.018804001155585,cigliano
Civiasco,45.81335961854915,8.306582386504074,civiasco
Collobiano,45.39794599874838,8.34790313965314,collobiano
Costanzana,45.22412430026119,8.366869195183332,costanzana
Cravagliana,45.865828514325514,8.197959822855388,cravagliana
Crescentino,45.2033126395167,8.114781900732778,crescentino
Crova,45.31962462780446,8.237553079549752,crova
Desana,45.261542214554524,8.340211656277633,desana
Fobello,45.908101892404744,8.130151589488708,fobello
Fontanetto Po,45.19980949408551,8.187870570473178,fontanetto po
Formigliana,45.43184473298371,8.28022032023946,formigliana
Gattinara,45.60455467276095,8.357212776609941,gattinara
Ghislarengo,45.52667767316376,8.374527106022196,ghislarengo
Greggio,45.45626919983248,8.380987308744283,greggio
Guardabosone,45.720146183114146,8.215778996731535,guardabosone
Lamporo,45.23256290820682,8.099594479901299,lamporo
Lenta,45.55774855352521,8.367019529386019,lenta
Lignana,45.28784529577047,8.319365397512783,lignana
Livorno Ferraris,45.26495018781611,8.109723465465981,livorno ferraris
Lozzolo,45.62487183115531,8.32320138292987,lozzolo
Mollia,45.82511987802174,8.021696895079952,mollia
Moncrivello,45.323500620275595,7.995490274631008,moncrivello
Motta de' Conti,45.18904662128511,8.532832924408105,motta de' conti
Olcenengo,45.35589273825857,8.316569701651842,olcenengo
Oldenico,45.39495388186153,8.386533167046572,oldenico
Palazzolo Vercellese,45.18622369331915,8.232504713014295,palazzolo vercellese
Pertengo,45.23327187841947,8.415126909639056,pertengo
Pezzana,45.26035915011475,8.499679137125524,pezzana
Pila,45.75673335271851,8.070217392257785,pila
Piode,45.76034886597385,8.040065302968031,piode
Postua,45.738788275915425,8.1991726479533,postua
Prarolo,45.28121024137903,8.479631563855696,prarolo
Quarona,45.76514625762306,8.254139166595163,quarona
Quinto Vercellese,45.37795109199342,8.353255331820733,quinto vercellese
Rassa,45.7508599394981,7.978476124250302,rassa
Rimella,45.91941431896961,8.192024065048424,rimella
Rive,45.20986418309713,8.41534838236361,rive
Roasio,45.59629207441101,8.290851814815147,roasio
Ronsecco,45.26184719943515,8.266842628588488,ronsecco
Rossa,45.853952779192326,8.123219818034471,rossa
Rovasenda,45.535479464666764,8.315880891496626,rovasenda
Salasco,45.32002605214479,8.284135458807343,salasco
Sali Vercellese,45.306707387331386,8.315365779424983,sali vercellese
Saluggia,45.23551646559518,8.028218013977094,saluggia
San Germano Vercellese,45.35562146775085,8.259519525590662,san germano vercellese
Santhià,45.383092380074714,8.195125578698061,santhià
Scopa,45.78681803868914,8.125470642072983,scopa
Scopello,45.76222752015159,8.092572013567553,scopello
Serravalle Sesia,45.6728919977443,8.308815912684484,serravalle sesia
Stroppiana,45.228701677354586,8.457311122014737,stroppiana
Tricerro,45.23320062193952,8.31294914316403,tricerro
Trino,45.21765248275584,8.266672976685927,trino
Tronzano Vercellese,45.32061092515116,8.186037847873786,tronzano vercellese
Valduggia,45.72842012077781,8.348507777000613,valduggia
Varallo,45.83209794819332,8.256048103347672,varallo
Vercelli,45.32005763426231,8.411334258092161,vercelli
Villarboit,45.440082754672225,8.331539518005254,villarboit
Villata,45.38694302108604,8.4251126702086,villata
Vocca,45.812616813891864,8.175588546824795,vocca
Alto Sermenza,45.876607462295176,8.02887135197585,alto sermenza
Cellio con Breia,45.76041663499587,8.311899941338037,cellio con breia
Agrate Conturbia,45.666274761295234,8.569497426309745,agrate conturbia
Ameno,45.78820349953269,8.451506295335712,ameno
Armeno,45.83180779151336,8.464470817339238,armeno
Arona,45.75985780592446,8.54289601029774,arona
Barengo,45.57068870682224,8.511305507835797,barengo
Bellinzago Novarese,45.55388084430866,8.642567548414577,bellinzago novarese
Biandrate,45.45086276256938,8.475686520500084,biandrate
Boca,45.680678666769865,8.40786876987872,boca
Bogogno,45.66231961199989,8.53410265042019,bogogno
Bolzano Novarese,45.76157657542869,8.447602790698872,bolzano novarese
Borgolavezzaro,45.31674888845967,8.691888386317496,borgolavezzaro
Borgomanero,45.697740686942915,8.469956703919078,borgomanero
Borgo Ticino,45.69240398272785,8.599032012879686,borgo ticino
Briga Novarese,45.731605196927454,8.458092717434907,briga novarese
Briona,45.53346773540262,8.504140606979323,briona
Caltignaga,45.52643563865823,8.576278143965888,caltignaga
Cameri,45.51443404758911,8.665137224695869,cameri
Carpignano Sesia,45.54098981776422,8.419726412624264,carpignano sesia
Casalbeltrame,45.42849271185939,8.475616817977851,casalbeltrame
Casaleggio Novara,45.487333536131445,8.502886206017124,casaleggio novara
Casalino,45.38398845738596,8.52761398016247,casalino
Casalvolone,45.40053659081279,8.468347070778492,casalvolone
Castellazzo Novarese,45.51173153894232,8.494774737823347,castellazzo novarese
Castelletto sopra Ticino,45.71151777639611,8.620789994789495,castelletto sopra ticino
Cavaglietto,45.59942834897501,8.498303160296496,cavaglietto
Cavaglio d'Agogna,45.61034592868599,8.473639723848263,cavaglio d'agogna
Cavallirio,45.66216946531019,8.403329831781207,cavallirio
Cerano,45.40408011273451,8.79029251859011,cerano
Colazza,45.7915504538651,8.490296449717825,colazza
Comignago,45.715771673563125,8.560390714476673,comignago
Cressa,45.645468729511585,8.508854668993303,cressa
Cureggio,45.66804598139199,8.455115112343629,cureggio
Divignano,45.656062474772085,8.597961202117661,divignano
Dormelletto,45.73453183830108,8.573985902783368,dormelletto
Fara Novarese,45.55872249544711,8.457366275390443,fara novarese
Fontaneto d'Agogna,45.64049634200741,8.468033538297995,fontaneto d'agogna
Galliate,45.485270505309174,8.712192853574376,galliate
Garbagna Novarese,45.391395375467845,8.66196254912103,garbagna novarese
Gargallo,45.72505077914088,8.410433966393231,gargallo
Ghemme,45.5972858281743,8.42518299516765,ghemme
Gozzano,45.74863611692175,8.42826116325835,gozzano
Granozzo con Monticello,45.36918237823681,8.588144448132422,granozzo con monticello
Grignasco,45.68860997850774,8.344445118692622,grignasco
Invorio,45.757874441576,8.48048828483889,invorio
Landiona,45.49529770244105,8.420777078629232,landiona
Lesa,45.82388770786881,8.560927091775113,lesa
Maggiora,45.69954843350061,8.413105697922113,maggiora
Mandello Vitta,45.50052905179327,8.462440971048514,mandello vitta
Marano Ticino,45.630100665063054,8.630702572125696,marano ticino
Massino Visconti,45.82671181995576,8.52983708226828,massino visconti
Meina,45.78527926512812,8.528685586853763,meina
Mezzomerico,45.62048372697868,8.60062205657724,mezzomerico
Miasino,45.806694613575395,8.435350675316203,miasino
Momo,45.56901734395911,8.565059132373275,momo
Nebbiuno,45.80852156065216,8.515521046131086,nebbiuno
Nibbiola,45.36921972312254,8.647913220919262,nibbiola
Novara,45.43926046811326,8.615310376648083,novara
Oleggio,45.59666329619928,8.646123854663466,oleggio
Oleggio Castello,45.74440586989335,8.530265175922766,oleggio castello
Orta San Giulio,45.79002053209899,8.415170170421261,orta san giulio
Paruzzaro,45.747899528078484,8.511369047019524,paruzzaro
Pella,45.8105282769966,8.385931703267554,pella
Pettenasco,45.82775283646463,8.404357539308112,pettenasco
Pisano,45.79364180786538,8.50753315711037,pisano
Pogno,45.757984474927945,8.376807556465124,pogno
Pombia,45.6463144598797,8.64614764851304,pombia
Prato Sesia,45.66329247811742,8.369738518517421,prato sesia
Recetto,45.45984373578205,8.425438558756566,recetto
Romagnano Sesia,45.630292923783166,8.399585498059466,romagnano sesia
Romentino,45.46381491227006,8.747236190589847,romentino
San Maurizio d'Opaglio,45.777321886684454,8.393455450872368,san maurizio d'opaglio
San Nazzaro Sesia,45.42705194065937,8.420359148100303,san nazzaro sesia
San Pietro Mosezzo,45.46901759866132,8.540808568256619,san pietro mosezzo
Sillavengo,45.51626379992585,8.438380439719657,sillavengo
Sizzano,45.57752822314876,8.443011612450853,sizzano
Soriso,45.73692316834543,8.398233561410898,soriso
Sozzago,45.3959484885922,8.724506611151856,sozzago
Suno,45.626906223743795,8.546154421628705,suno
Terdobbiate,45.37516214931742,8.694722778661838,terdobbiate
Tornaco,45.3524535558951,8.726575647352261,tornaco
Trecate,45.432483197970086,8.74035201835642,trecate
Vaprio d'Agogna,45.60275184477708,8.55624668568397,vaprio d'agogna
Varallo Pombia,45.66852489450091,8.641342359454981,varallo pombia
Vespolate,45.34627722547562,8.660410365143186,vespolate
Vicolungo,45.47630304247176,8.45763117057398,vicolungo
Vinzaglio,45.3296937671653,8.501425065165611,vinzaglio
Acceglio,44.48747462817427,6.950322407708836,acceglio
Aisone,44.287257379129926,7.221673368910782,aisone
Alba,44.68798848576604,8.030303089294707,alba
Albaretto della Torre,44.59753120251617,8.06239601491387,albaretto della torre
Alto,44.11884482643856,7.990632016756235,alto
Argentera,44.37819680533388,6.949435307968319,argentera
Arguello,44.58803936687278,8.099459878470187,arguello
Bagnasco,44.293125510367226,8.047153385739707,bagnasco
Bagnolo Piemonte,44.753034728951896,7.254559830270542,bagnolo piemonte
Baldissero d'Alba,44.76553570212997,7.888564007699917,baldissero d'alba
Barbaresco,44.719764644664984,8.076761823744663,barbaresco
Barge,44.728625215584565,7.348745947117003,barge
Barolo,44.61535673816328,7.941950664391905,barolo
Bastia Mondovì,44.44815382867665,7.900823955646937,bastia mondovì
Battifollo,44.32299087218099,8.01469208031976,battifollo
Beinette,44.36958257036274,7.651396703590058,beinette
Bellino,44.57621898406455,6.983387595665116,bellino
Belvedere Langhe,44.50014924703168,7.979320992273114,belvedere langhe
Bene Vagienna,44.53514538892714,7.825766713795984,bene vagienna
Benevello,44.62981018859701,8.097970605015494,benevello
Bergolo,44.54984171979251,8.177247953243008,bergolo
Bernezzo,44.38279774149287,7.4269828205470745,bernezzo
Bonvicino,44.504944720657804,8.015945156610575,bonvicino
Borgomale,44.62980548713455,8.121810612263314,borgomale
Borgo San Dalmazzo,44.32956797727674,7.472166171414617,borgo san dalmazzo
Bosia,44.59850186566767,8.141769714640754,bosia
Bossolasco,44.53225037757317,8.051644734267972,bossolasco
Boves,44.30752347575123,7.559616066125882,boves
Bra,44.70702980125781,7.8250968683209745,bra
Briaglia,44.40138627633707,7.874929909957761,briaglia
Briga Alta,44.13760150419991,7.704869136806802,briga alta
Brondello,44.59871973282368,7.399841379934199,brondello
Brossasco,44.58200735637264,7.32801800276252,brossasco
Busca,44.50913323212013,7.450167565375793,busca
Camerana,44.426726965191875,8.135681819201256,camerana
Canale,44.799968577497744,8.005090226329962,canale
Canosio,44.42075815263603,7.053992588056331,canosio
Caprauna,44.11923816900806,7.948750972007407,caprauna
Caraglio,44.426974072207315,7.440273047713142,caraglio
Caramagna Piemonte,44.78581922120359,7.730696922036758,caramagna piemonte
Cardè,44.739912288184584,7.473259413815954,cardè
Carrù,44.480549444233375,7.853879098847395,carrù
Cartignano,44.48826906546945,7.285267820805439,cartignano
Casalgrasso,44.81662531736831,7.625219256386881,casalgrasso
Castagnito,44.75092950102639,8.053079922719013,castagnito
Casteldelfino,44.59223392471373,7.088991727384296,casteldelfino
Castelletto Stura,44.43150039868072,7.6355451740704625,castelletto stura
Castelletto Uzzone,44.492263979620226,8.189317387019434,castelletto uzzone
Castellinaldo d'Alba,44.77494883354815,8.033745074382661,castellinaldo d'alba
Castellino Tanaro,44.42727606777398,7.987952934076286,castellino tanaro
Castelmagno,44.404278935120075,7.192124924783522,castelmagno
Castelnuovo di Ceva,44.35087464945882,8.132599576327332,castelnuovo di ceva
Castiglione Falletto,44.62965991601996,7.9730986850009415,castiglione falletto
Castiglione Tinella,44.730254531619096,8.192023220288128,castiglione tinella
Castino,44.62475053491111,8.16038393233805,castino
Cavallerleone,44.73504113791226,7.649029177141207,cavallerleone
Cavallermaggiore,44.708104222135034,7.698804515727017,cavallermaggiore
Celle di Macra,44.45833644854005,7.17564580199629,celle di macra
Centallo,44.48816339023068,7.592532630471593,centallo
Ceresole Alba,44.81817133908056,7.816461621594279,ceresole alba
Cerretto Langhe,44.57713487725625,8.077491250941321,cerretto langhe
Cervasca,44.38567026324411,7.480959691774054,cervasca
Cervere,44.626163077417395,7.772095761101597,cervere
Ceva,44.37613184643155,8.026324472729122,ceva
Cherasco,44.6453748259131,7.832453367419218,cherasco
Chiusa di Pesio,44.26009300396836,7.671083790891077,chiusa di pesio
Cigliè,44.436184094764904,7.926329573068431,cigliè
Cissone,44.56263989372268,8.028759489496348,cissone
Clavesana,44.478188542285466,7.923958167259104,clavesana
Corneliano d'Alba,44.73666512600028,7.961140370792077,corneliano d'alba
Cortemilia,44.5797154951051,8.190232573806485,cortemilia
Cossano Belbo,44.6638050651986,8.193812629361895,cossano belbo
Costigliole Saluzzo,44.56183015088364,7.490364903429994,costigliole saluzzo
Cravanzana,44.57061113882975,8.121475996266579,cravanzana
Crissolo,44.70017019266119,7.125325479530229,crissolo
Cuneo,44.41614493413987,7.552752234700308,cuneo
Demonte,44.32906032756901,7.253077260388522,demonte
Diano d'Alba,44.64873917901573,8.02526164839502,diano d'alba
Dogliani,44.536132570500435,7.956516052793837,dogliani
Dronero,44.455050168435804,7.3296209036648525,dronero
Elva,44.54528508512656,7.077915547735167,elva
Entracque,44.18151824323252,7.402914263942665,entracque
Envie,44.69156085813834,7.375879520038475,envie
Farigliano,44.50992634141792,7.923044512957729,farigliano
Faule,44.79659818200637,7.572043894382785,faule
Feisoglio,44.54466058049234,8.103511298829936,feisoglio
Fossano,44.544160302179804,7.692893507200506,fossano
Frabosa Soprana,44.25240433572018,7.813110190032407,frabosa soprana
Frabosa Sottana,44.28069548289639,7.775746823336649,frabosa sottana
Frassino,44.566680999426225,7.26759942223245,frassino
Gaiola,44.33363063350889,7.406525905114977,gaiola
Gambasca,44.62320904236137,7.337820213365227,gambasca
Garessio,44.19890720090549,7.99281618957338,garessio
Genola,44.58858826959261,7.668156102409763,genola
Gorzegno,44.514860940473426,8.119682337057988,gorzegno
Gottasecca,44.460309512953785,8.176484678637909,gottasecca
Govone,44.79508237175869,8.104396538324295,govone
Grinzane Cavour,44.6594845566952,7.994192335570798,grinzane cavour
Guarene,44.73576280395087,8.033023302539641,guarene
Igliano,44.44111759460004,8.014737661323569,igliano
Isasca,44.59026014933712,7.369625825447844,isasca
Lagnasco,44.63277674294047,7.55787073244742,lagnasco
La Morra,44.64739803938493,7.931515721930907,la morra
Lequio Berria,44.60658112004712,8.10124328147998,lequio berria
Lequio Tanaro,44.553767812835645,7.882760090664476,lequio tanaro
Lesegno,44.39620655975028,7.96377603734564,lesegno
Levice,44.53491821375355,8.156933134005447,levice
Limone Piemonte,44.18595714857422,7.576347070525146,limone piemonte
Lisio,44.30621610450491,7.983336941006787,lisio
Macra,44.504675996630624,7.173112457743147,macra
Magliano Alfieri,44.76494865884952,8.077279723773648,magliano alfieri
Magliano Alpi,44.34873445935835,7.7916714583036395,magliano alpi
Mango,44.68049991376749,8.152428542622598,mango
Manta,44.612919283760924,7.504040182044995,manta
Marene,44.65815027148964,7.732538962907328,marene
Margarita,44.40042658390897,7.67464838954828,margarita
Marmora,44.43545568923063,7.11498389003881,marmora
Marsaglia,44.45537892287099,7.9859414448715516,marsaglia
Martiniana Po,44.61625355968301,7.362645014591557,martiniana po
Melle,44.5475964837853,7.308932861778399,melle
Moiola,44.31314495079278,7.386495968444179,moiola
Mombarcaro,44.465741545519485,8.079236560651555,mombarcaro
Mombasiglio,44.35678258458697,7.964039374662177,mombasiglio
Monastero di Vasco,44.336256008551125,7.819609314212187,monastero di vasco
Monasterolo Casotto,44.31436920416762,7.939608270584865,monasterolo casotto
Monasterolo di Savigliano,44.68215510156146,7.610071380280332,monasterolo di savigliano
Monchiero,44.56691932815751,7.9209655906515515,monchiero
Mondovì,44.40856610579796,7.812950101710349,mondovì
Monesiglio,44.46396245754608,8.121792914185987,monesiglio
Monforte d'Alba,44.5858607785922,7.970553422017802,monforte d'alba
Montà,44.82381455187004,7.951069436988805,montà
Montaldo di Mondovì,44.30087571393613,7.856357910962749,montaldo di mondovì
Montaldo Roero,44.77018756777123,7.91647613359327,montaldo roero
Montanera,44.45827155471914,7.674850613200211,montanera
Montelupo Albese,44.62302610076776,8.03478150458667,montelupo albese
Montemale di Cuneo,44.43401025490637,7.363246712078097,montemale di cuneo
Monterosso Grana,44.38723763334194,7.302717437108505,monterosso grana
Monteu Roero,44.79158611199072,7.912126723962938,monteu roero
Montezemolo,44.380771600754045,8.134063030095344,montezemolo
Monticello d'Alba,44.7127058199951,7.946012885160705,monticello d'alba
Moretta,44.76540095196522,7.538786869328883,moretta
Morozzo,44.42922525675455,7.687767916572901,morozzo
Murazzano,44.47497394009322,8.012990829887078,murazzano
Murello,44.75514470587492,7.6046620870828825,murello
Narzole,44.59595136633211,7.872936005237401,narzole
Neive,44.72780964123384,8.115768510733389,neive
Neviglie,44.69332621440952,8.11822548325626,neviglie
Niella Belbo,44.515501939902464,8.081123487601058,niella belbo
Niella Tanaro,44.40940788283239,7.9222651815288865,niella tanaro
Novello,44.59095146722575,7.9201753788936955,novello
Nucetto,44.33942371736064,8.05541314414613,nucetto
Oncino,44.650686506307906,7.1624997221102555,oncino
Ormea,44.156103303129306,7.86710498831548,ormea
Ostana,44.70710860921093,7.192944746171763,ostana
Paesana,44.671171578843065,7.247069090327349,paesana
Pagno,44.608016864466414,7.429211102866186,pagno
Pamparato,44.25607716791398,7.9098649023475165,pamparato
Paroldo,44.43029013787181,8.069929812668981,paroldo
Perletto,44.597111335309634,8.216328791337165,perletto
Perlo,44.324647376664004,8.0923837013545,perlo
Peveragno,44.310713289586836,7.618307492741755,peveragno
Pezzolo Valle Uzzone,44.53400720471705,8.215145258139083,pezzolo valle uzzone
Pianfei,44.373246872109426,7.711130163958669,pianfei
Piasco,44.569038554929215,7.447337604022205,piasco
Pietraporzio,44.32684517961319,7.008298213587215,pietraporzio
Piobesi d'Alba,44.731344815497664,7.982887851830803,piobesi d'alba
Piozzo,44.51647030626583,7.88088885514465,piozzo
Pocapaglia,44.724164865554876,7.878110163270847,pocapaglia
Polonghera,44.79072834733065,7.596060262586334,polonghera
Pontechianale,44.64526005558956,7.025444578117552,pontechianale
Pradleves,44.413325252704176,7.266438179418913,pradleves
Prazzo,44.50225151541646,7.0477668898064,prazzo
Priero,44.36477119200019,8.099059853520975,priero
Priocca,44.79170139845939,8.061554886527237,priocca
Priola,44.253296349589256,8.030987998755856,priola
Prunetto,44.492297567139005,8.137839677980345,prunetto
Racconigi,44.776208388386834,7.673082924359954,racconigi
Revello,44.669103012568804,7.415894701531776,revello
Rifreddo,44.65479904667936,7.3535892027410235,rifreddo
Rittana,44.358470153296686,7.37454859027249,rittana
Roaschia,44.25603645182618,7.457312240352066,roaschia
Roascio,44.41703481071186,8.024965052022106,roascio
Robilante,44.282502709010835,7.517310604927843,robilante
Roburent,44.26189071015897,7.8715307446690534,roburent
Roccabruna,44.49211716972462,7.323319353999423,roccabruna
Rocca Cigliè,44.4435879293663,7.9497494428610604,rocca cigliè
Rocca de' Baldi,44.4379993939844,7.746221724954858,rocca de' baldi
Roccaforte Mondovì,44.25105860876489,7.7318527251600955,roccaforte mondovì
Roccasparvera,44.344290454681136,7.433374020344411,roccasparvera
Roccavione,44.29922856774037,7.477792914923907,roccavione
Rocchetta Belbo,44.63873595908855,8.174512465739804,rocchetta belbo
Roddi,44.67883094020716,7.965726363886236,roddi
Roddino,44.57539855655348,8.018727393022033,roddino
Rodello,44.62885582029126,8.063096754113786,rodello
Rossana,44.531491742067814,7.411927511755591,rossana
Ruffia,44.71096259404133,7.6024204686130705,ruffia
Sale delle Langhe,44.395607522146584,8.092316195280574,sale delle langhe
Sale San Giovanni,44.406885743031154,8.07636714124955,sale san giovanni
Saliceto,44.418669981753524,8.18315844268769,saliceto
Salmour,44.581637670562976,7.797738171911458,salmour
Saluzzo,44.67017900968321,7.490224760893733,saluzzo
Sambuco,44.34690259992749,7.083574169492356,sambuco
Sampeyre,44.58332809779596,7.187181377164807,sampeyre
San Benedetto Belbo,44.49007749264692,8.059396668438119,san benedetto belbo
San Damiano Macra,44.49725736841433,7.237252104315507,san damiano macra
Sanfrè,44.749608872042735,7.806962539904968,sanfrè
Sanfront,44.64057350509518,7.302769077063731,sanfront
San Michele Mondovì,44.3688742323607,7.920965628877672,san michele mondovì
Sant'Albano Stura,44.48941191512256,7.722713631524626,sant'albano stura
Santa Vittoria d'Alba,44.69914419092968,7.93805900929431,santa vittoria d'alba
Santo Stefano Belbo,44.70429899981578,8.21914307057421,santo stefano belbo
Santo Stefano Roero,44.800907661869594,7.924560093376907,santo stefano roero
Savigliano,44.621476245824574,7.636766285874526,savigliano
Scagnello,44.33201018775671,7.979236893227044,scagnello
Scarnafigi,44.68849182938475,7.55860842118923,scarnafigi
Serralunga d'Alba,44.61628486389405,7.996258188693672,serralunga d'alba
Serravalle Langhe,44.558705591999015,8.066376408935167,serravalle langhe
Sinio,44.60450735122338,8.025120389849748,sinio
Somano,44.530675311252566,8.014260283018526,somano
Sommariva del Bosco,44.77357471754363,7.780961345276302,sommariva del bosco
Sommariva Perno,44.74554348832232,7.889193101525065,sommariva perno
Stroppo,44.51256107872653,7.130096146944,stroppo
Tarantasca,44.498107643290126,7.531986044433256,tarantasca
Torre Bormida,44.56303160259347,8.144623526124567,torre bormida
Torre Mondovì,44.32720535878231,7.909699478350715,torre mondovì
Torre San Giorgio,44.72787268792448,7.5283481662734415,torre san giorgio
Torresina,44.43615830236205,8.034154854327282,torresina
Treiso,44.689371541222016,8.085116572592499,treiso
Trezzo Tinella,44.66377533569812,8.114040722653383,trezzo tinella
Trinità,44.51138854761028,7.762926260169558,trinità
Valdieri,44.22656312471444,7.302686000072933,valdieri
Valgrana,44.402508026104044,7.366062781405038,valgrana
Valloriate,44.34172189162278,7.347494795309325,valloriate
Venasca,44.55895156776664,7.396983481956321,venasca
Verduno,44.672471802844015,7.9321019287249,verduno
Vernante,44.21697369341841,7.516498786136295,vernante
Verzuolo,44.59392946358596,7.494443604906272,verzuolo
Vezza d'Alba,44.761397833950255,7.994160156626319,vezza d'alba
Vicoforte,44.363452850440254,7.86614917040174,vicoforte
Vignolo,44.35882787774218,7.475946315153372,vignolo
Villafalletto,44.55619586840707,7.546581552879023,villafalletto
Villanova Mondovì,44.35883186658774,7.750390222694252,villanova mondovì
Villanova Solaro,44.733899250128815,7.574211709581003,villanova solaro
Villar San Costanzo,44.486727219541635,7.393901041277339,villar san costanzo
Vinadio,44.2688651246226,7.1174835865837975,vinadio
Viola,44.27658573893186,7.96688826247484,viola
Vottignasco,44.56173205698031,7.579176799771616,vottignasco
Agliano Terme,44.787383163949094,8.2469487705526,agliano terme
Albugnano,45.0803249611577,7.9753480149614795,albugnano
Antignano,44.840760615348856,8.137708448718373,antignano
Aramengo,45.09893309291573,7.992997370058203,aramengo
Asti,44.913311628186435,8.194496978040856,asti
Azzano d'Asti,44.88237435559059,8.266246685936478,azzano d'asti
Baldichieri d'Asti,44.90697274919144,8.094288434478813,baldichieri d'asti
Belveglio,44.834576502573825,8.330750461646083,belveglio
Berzano di San Pietro,45.10170770231463,7.951253466717446,berzano di san pietro
Bruno,44.79654370578744,8.44738822035356,bruno
Bubbio,44.65802402479581,8.293188696400449,bubbio
Buttigliera d'Asti,45.00641066622479,7.95418209017868,buttigliera d'asti
Calamandrana,44.7350797330286,8.336160192442232,calamandrana
Calliano,45.00286033008028,8.25119056383282,calliano
Calosso,44.745380443140455,8.235223513264348,calosso
Camerano Casasco,44.983754336298695,8.087525572215432,camerano casasco
Canelli,44.721751192537695,8.282613557810153,canelli
Cantarana,44.89815510272407,8.0281633882352,cantarana
Capriglio,45.006606358802344,8.009810685279973,capriglio
Casorzo Monferrato,45.01452710385324,8.335365878148375,casorzo monferrato
Cassinasco,44.69233073444571,8.311536776508738,cassinasco
Castagnole delle Lanze,44.75721023570197,8.143872305260825,castagnole delle lanze
Castagnole Monferrato,44.953725059736975,8.303911694787685,castagnole monferrato
Castel Boglione,44.72745176414543,8.37690950051758,castel boglione
Castell'Alfero,44.97865407256682,8.203065508785215,castell'alfero
Castellero,44.92030395217349,8.071898449616146,castellero
Castelletto Molina,44.74468646277435,8.430596559120312,castelletto molina
Castello di Annone,44.89404440932833,8.330030167427694,castello di annone
Castelnuovo Belbo,44.805266745099566,8.414551388972276,castelnuovo belbo
Castelnuovo Calcea,44.786967119679026,8.286455584250726,castelnuovo calcea
Castelnuovo Don Bosco,45.03615156599928,7.978077538534663,castelnuovo don bosco
Castel Rocchero,44.72039149952454,8.412726711411183,castel rocchero
Cellarengo,44.87324453515737,7.928029333055007,cellarengo
Celle Enomondo,44.85847009392805,8.11588852420773,celle enomondo
Cerreto d'Asti,45.048726220376466,8.030316123147626,cerreto d'asti
Cerro Tanaro,44.87716830773599,8.36765208132589,cerro tanaro
Cessole,44.64486059848704,8.25168275403379,cessole
Chiusano d'Asti,44.98342346993358,8.120824418078925,chiusano d'asti
Cinaglio,44.96864635877269,8.096046009618266,cinaglio
Cisterna d'Asti,44.83527684160391,8.001325016415352,cisterna d'asti
Coazzolo,44.72821308142347,8.152002986692334,coazzolo
Cocconato,45.08983877302589,8.045544676502526,cocconato
Corsione,45.002915373251824,8.154485758856802,corsione
Cortandone,44.95597414125084,8.058051699477277,cortandone
Cortanze,45.01753104570498,8.087237579000584,cortanze
Cortazzone,44.97743621052365,8.051270648772054,cortazzone
Cortiglione,44.830784295100536,8.365378466205232,cortiglione
Cossombrato,44.984919918409744,8.141750887481184,cossombrato
Costigliole d'Asti,44.78494958986891,8.177699552934882,costigliole d'asti
Cunico,45.041615515578755,8.091115750314371,cunico
Dusino San Michele,44.920151148389685,7.982392226793235,dusino san michele
Ferrere,44.87297104493887,7.991823516854424,ferrere
Fontanile,44.747456299585146,8.411750539344691,fontanile
Frinco,44.995454905704875,8.17583597922331,frinco
Grana,45.00184640055122,8.296094613234787,grana
Grazzano Badoglio,45.0367168873386,8.308222645018674,grazzano badoglio
Incisa Scapaccino,44.81479751003929,8.387590368681298,incisa scapaccino
Isola d'Asti,44.8260466084939,8.179429912282398,isola d'asti
Loazzolo,44.67111014308425,8.256252420399125,loazzolo
Maranzana,44.76333358579552,8.482544319541596,maranzana
Maretto,44.94185533918613,8.038767653047845,maretto
Moasca,44.76467046277597,8.272562462679973,moasca
Mombaldone,44.57611080724235,8.330535312702304,mombaldone
Mombaruzzo,44.77659101478584,8.448884355659306,mombaruzzo
Mombercelli,44.826645777146375,8.295363110126518,mombercelli
Monale,44.936218537354726,8.077936319392748,monale
Monastero Bormida,44.638806107267065,8.32737539875843,monastero bormida
Moncalvo,45.05003667092079,8.271815160254983,moncalvo
Moncucco Torinese,45.07039436350489,7.9209482753072455,moncucco torinese
Mongardino,44.84884563774046,8.224484142117284,mongardino
Montabone,44.70004522553331,8.390925650513736,montabone
Montafia,44.98525517749459,8.015787694883816,montafia
Montaldo Scarampi,44.83142724036029,8.266765179374666,montaldo scarampi
Montechiaro d'Asti,45.012306606406064,8.113968437209504,montechiaro d'asti
Montegrosso d'Asti,44.81343360517105,8.232147522667828,montegrosso d'asti
Montemagno,44.973699808817734,8.329535171542705,montemagno
Nizza Monferrato,44.76975307448058,8.354983918281759,nizza monferrato
Olmo Gentile,44.581727077600284,8.251761383052395,olmo gentile
Passerano Marmorito,45.05609408018135,8.012778166665743,passerano marmorito
Penango,45.02671241379112,8.261522215957017,penango
Piea,45.021271214749106,8.061578572700379,piea
Pino d'Asti,45.0553950706066,7.9866906726126645,pino d'asti
Piovà Massaia,45.04542197040395,8.049606733525604,piovà massaia
Portacomaro,44.949085829272065,8.262675247954485,portacomaro
Quaranti,44.74985649612105,8.448644277533088,quaranti
Refrancore,44.929803039279875,8.346309576796447,refrancore
Revigliasco d'Asti,44.85739977870288,8.163594588914654,revigliasco d'asti
Roatto,44.951421761282425,8.016373288955018,roatto
Robella,45.10664034532733,8.10383138513144,robella
Rocca d'Arazzo,44.86370440833958,8.288291099232268,rocca d'arazzo
Roccaverano,44.594873093743665,8.285778294950012,roccaverano
Rocchetta Palafea,44.70518465999739,8.343729575896285,rocchetta palafea
Rocchetta Tanaro,44.8576524221855,8.346295062523843,rocchetta tanaro
San Damiano d'Asti,44.845576152890935,8.051944317255044,san damiano d'asti
San Giorgio Scarampi,44.60924698457331,8.23872294230309,san giorgio scarampi
San Martino Alfieri,44.82406453360091,8.116106688530659,san martino alfieri
San Marzano Oliveto,44.75463625393653,8.301014041993884,san marzano oliveto
San Paolo Solbrito,44.951917336402225,7.980503452747306,san paolo solbrito
Scurzolengo,44.96700665106241,8.275894655064887,scurzolengo
Serole,44.54779634840026,8.260368996213531,serole
Sessame,44.67104117086917,8.338503171755969,sessame
Settime,44.9584213228514,8.112921587408675,settime
Soglio,44.997333419946024,8.07748078804056,soglio
Tigliole,44.8843528644555,8.08503210326869,tigliole
Tonco,45.0208558111674,8.189046462478156,tonco
Vaglio Serra,44.8004428437868,8.344333845370974,vaglio serra
Valfenera,44.89161674270171,7.954514463168083,valfenera
Vesime,44.63025047016364,8.225547951451741,vesime
Viale,45.00179137874345,8.050619112071447,viale
Viarigi,44.96679035862567,8.364422924954667,viarigi
Vigliano d'Asti,44.834822883021154,8.228402523134545,vigliano d'asti
Villafranca d'Asti,44.91863551233345,8.036628644815938,villafranca d'asti
Villanova d'Asti,44.95139159064267,7.934463141926331,villanova d'asti
Villa San Secondo,45.002241808673425,8.145860585122191,villa san secondo
Vinchio,44.807063043863096,8.318943241006203,vinchio
Montiglio Monferrato,45.05844071807716,8.108305287678022,montiglio monferrato
Acqui Terme,44.68094674016328,8.46394518868066,acqui terme
Albera Ligure,44.70809221862819,9.103575083773492,albera ligure
Alessandria,44.909097638278936,8.64473552952178,alessandria
Alfiano Natta,45.0408839890307,8.208682796856204,alfiano natta
Alice Bel Colle,44.72349187665525,8.453770261735674,alice bel colle
Altavilla Monferrato,44.98561318583988,8.378632765235135,altavilla monferrato
Alzano Scrivia,45.01747723501471,8.87982951924842,alzano scrivia
Arquata Scrivia,44.67024802201003,8.889170200694647,arquata scrivia
Avolasca,44.812018826646124,8.970274812677397,avolasca
Balzola,45.18475164377236,8.412283813927864,balzola
Basaluzzo,44.767274307722474,8.712878685408784,basaluzzo
Bassignana,45.00400229482684,8.731484058487755,bassignana
Belforte Monferrato,44.60532208524634,8.670509219305139,belforte monferrato
Bergamasco,44.82824811665865,8.449037762209711,bergamasco
Berzano di Tortona,44.875377740798385,8.95435369998233,berzano di tortona
Bistagno,44.67021834633187,8.374920240125453,bistagno
Borghetto di Borbera,44.735297496272196,8.96782015387068,borghetto di borbera
Borgoratto Alessandrino,44.83035410414917,8.51860830757311,borgoratto alessandrino
Borgo San Martino,45.092799065435834,8.529187116890348,borgo san martino
Bosco Marengo,44.81921860828114,8.70519030115425,bosco marengo
Bosio,44.57523000119843,8.784275744259014,bosio
Bozzole,45.07365042912221,8.621946717351205,bozzole
Brignano-Frascata,44.81021361702476,9.044790548394056,brignano-frascata
Cabella Ligure,44.66958443458451,9.137582766091267,cabella ligure
Camagna Monferrato,45.021890593217115,8.434127309317354,camagna monferrato
Camino,45.161419167726415,8.27514755998646,camino
Cantalupo Ligure,44.73319647017666,9.061131157812817,cantalupo ligure
Capriata d'Orba,44.72879292941521,8.694156819884165,capriata d'orba
Carbonara Scrivia,44.85288161734333,8.858455996654191,carbonara scrivia
Carentino,44.82230563774378,8.48469377258227,carentino
Carezzano,44.80689868929931,8.895156403192585,carezzano
Carpeneto,44.6915522157052,8.615668029478362,carpeneto
Carrega Ligure,44.616377544197874,9.155348962075015,carrega ligure
Carrosio,44.65630575311851,8.837879334693039,carrosio
Cartosio,44.594842583764525,8.422880100547191,cartosio
Casal Cermelli,44.824076731887345,8.631456542379848,casal cermelli
Casaleggio Boiro,44.61252368597278,8.74079704458582,casaleggio boiro
Casale Monferrato,45.12647119820874,8.461337615005531,casale monferrato
Casalnoceto,44.918011937157765,8.979758088767698,casalnoceto
Casasco,44.82126255396286,9.004262233124152,casasco
Cassine,44.75220067575529,8.51950756487323,cassine
Cassinelle,44.57922251541034,8.557676192077933,cassinelle
Castellania Coppi,44.79645802267718,8.939171115963703,castellania coppi
Castellar Guidobono,44.907763603292565,8.949625428167481,castellar guidobono
Castellazzo Bormida,44.8370898510667,8.582214462630638,castellazzo bormida
Castelletto d'Erro,44.630847876137125,8.390420392076605,castelletto d'erro
Castelletto d'Orba,44.68851664208669,8.70858713324257,castelletto d'orba
Castelletto Merli,45.07519230635861,8.235565408535795,castelletto merli
Castelletto Monferrato,44.97256205502531,8.553250289839456,castelletto monferrato
Castelnuovo Bormida,44.74201674186628,8.559193614441764,castelnuovo bormida
Castelnuovo Scrivia,44.974979265326155,8.874211125820034,castelnuovo scrivia
Castelspina,44.80073592322332,8.596970788390381,castelspina
Cavatore,44.63208323567999,8.456922974029768,cavatore
Cella Monte,45.06535445269782,8.384581922093638,cella monte
Cereseto,45.089885721061115,8.322491880986693,cereseto
Cerreto Grue,44.83859046494977,8.930425967711434,cerreto grue
Cerrina Monferrato,45.112454666886,8.20989385887377,cerrina monferrato
Coniolo,45.151889031892594,8.382951558258128,coniolo
Conzano,45.033522483978096,8.462226978086445,conzano
Costa Vescovato,44.819487263964305,8.929999346280983,costa vescovato
Cremolino,44.632458558082746,8.575452109665038,cremolino
Denice,44.60337577378708,8.333996709299807,denice
Dernice,44.76141921794995,9.04547667283804,dernice
Fabbrica Curone,44.74145354721626,9.1692863649272,fabbrica curone
Felizzano,44.90797245896022,8.429221532495296,felizzano
Fraconalto,44.58434093599711,8.894011964091995,fraconalto
Francavilla Bisio,44.726462003808244,8.738693726264477,francavilla bisio
Frascaro,44.81970453594686,8.52022307092978,frascaro
Frassinello Monferrato,45.037241692879576,8.39485144232759,frassinello monferrato
Frassineto Po,45.13455821339032,8.548745623730085,frassineto po
Fresonara,44.78313666702825,8.69206867877441,fresonara
Frugarolo,44.85215905771025,8.672590962001616,frugarolo
Fubine Monferrato,44.95838385993064,8.423442662086483,fubine monferrato
Gabiano,45.1524657039578,8.206709306704209,gabiano
Gamalero,44.80189888413013,8.526960002588154,gamalero
Garbagna,44.780650721825516,8.99789002940881,garbagna
Gavi,44.68735331096928,8.815734996965,gavi
Giarole,45.058825522048195,8.563802714153612,giarole
Gremiasco,44.80016319883909,9.107966331388779,gremiasco
Grognardo,44.62706196105762,8.494804274303474,grognardo
Grondona,44.69423924171774,8.969323827244349,grondona
Guazzora,45.02135939891511,8.859392282781016,guazzora
Isola Sant'Antonio,45.03219849404183,8.84684907742707,isola sant'antonio
Lerma,44.62618346834979,8.718287582698668,lerma
Malvicino,44.5571119921881,8.419299162007313,malvicino
Masio,44.865257822451674,8.419694268071686,masio
Melazzo,44.63982928429055,8.42127949414812,melazzo
Merana,44.51524200797358,8.289127812027678,merana
Mirabello Monferrato,45.032506794971816,8.525650004566439,mirabello monferrato
Molare,44.57363508602412,8.590810693508185,molare
Molino dei Torti,45.02704959876986,8.896271098551935,molino dei torti
Mombello Monferrato,45.12545142369911,8.256148331786376,mombello monferrato
Momperone,44.840354581900186,9.036524159541603,momperone
Moncestino,45.157333807639624,8.158701113795512,moncestino
Mongiardino Ligure,44.642071003988406,9.072824728334494,mongiardino ligure
Monleale,44.87106960087893,8.975365052133471,monleale
Montacuto,44.76043035003567,9.107235912127939,montacuto
Montaldeo,44.66598685775462,8.727415181551715,montaldeo
Montaldo Bormida,44.69621563205873,8.592286123575168,montaldo bormida
Montecastello,44.95766360115762,8.691973769478258,montecastello
Montechiaro d'Acqui,44.58966659090152,8.380747940496754,montechiaro d'acqui
Montegioco,44.8408931581873,8.95931038785959,montegioco
Montemarzino,44.84882634839267,8.99258614674566,montemarzino
Morano sul Po,45.17295795954986,8.354889292167638,morano sul po
Morbello,44.59522517416214,8.52159690900471,morbello
Mornese,44.627394074375395,8.759247675494931,mornese
Morsasco,44.667242783512705,8.54894848087937,morsasco
Murisengo,45.08268961221348,8.137590645547576,murisengo
Novi Ligure,44.76508499242994,8.795325569885271,novi ligure
Occimiano,45.06130034457588,8.51161129391814,occimiano
Odalengo Grande,45.10455082454424,8.161535912634491,odalengo grande
Odalengo Piccolo,45.07363733894267,8.206221450038102,odalengo piccolo
Olivola,45.03539834611495,8.368352636956509,olivola
Orsara Bormida,44.687969726213026,8.565318726848112,orsara bormida
Ottiglio,45.05206583552966,8.341100620507133,ottiglio
Ovada,44.62449111085931,8.638040497643937,ovada
Oviglio,44.8651000638189,8.482693102485307,oviglio
Ozzano Monferrato,45.106521394975346,8.36917323984331,ozzano monferrato
Paderna,44.824715354047655,8.8865045764843,paderna
Pareto,44.516698494868294,8.403631254875874,pareto
Parodi Ligure,44.672383035129414,8.759204297296536,parodi ligure
Pasturana,44.75066701813577,8.746527411718182,pasturana
Pecetto di Valenza,44.98716109867278,8.672911398784922,pecetto di valenza
Pietra Marazzi,44.94355592659199,8.673103081162054,pietra marazzi
Pomaro Monferrato,45.06977845624848,8.583188637837067,pomaro monferrato
Pontecurone,44.95638353323544,8.939842971866033,pontecurone
Pontestura,45.135331045380866,8.328967319263612,pontestura
Ponti,44.6258976077429,8.36244380949673,ponti
Ponzano Monferrato,45.08108562423368,8.270766076789455,ponzano monferrato
Ponzone,44.553425112082806,8.493226440265412,ponzone
Pozzol Groppo,44.868441987099516,9.039812727139392,pozzol groppo
Pozzolo Formigaro,44.81105515035148,8.789059753530795,pozzolo formigaro
Prasco,44.6440705799565,8.540108593662147,prasco
Predosa,44.75409550834446,8.639169818075228,predosa
Quargnento,44.95445050595483,8.486725884369505,quargnento
Quattordio,44.90542145174169,8.388095183317354,quattordio
Ricaldone,44.73634336279086,8.474677472284384,ricaldone
Rivalta Bormida,44.71097601015718,8.55841658694406,rivalta bormida
Rivarone,44.97315488142374,8.715753730653065,rivarone
Roccaforte Ligure,44.68040412961835,9.0181049946961,roccaforte ligure
Rocca Grimalda,44.68498674138386,8.644069034252274,rocca grimalda
Rocchetta Ligure,44.691607877111686,9.058032909096479,rocchetta ligure
Rosignano Monferrato,45.07300813049957,8.416263339555345,rosignano monferrato
Sala Monferrato,45.07474106918126,8.35427613612175,sala monferrato
Sale,44.96492626050253,8.801038081687654,sale
San Cristoforo,44.6943845699568,8.745649597505333,san cristoforo
San Giorgio Monferrato,45.109993920606435,8.413121045423386,san giorgio monferrato
San Salvatore Monferrato,45.00472765719339,8.561943190540486,san salvatore monferrato
San Sebastiano Curone,44.787123716671445,9.070613738596345,san sebastiano curone
Sant'Agata Fossili,44.783779600082234,8.90471949217265,sant'agata fossili
Sardigliano,44.76561355057664,8.919618238028399,sardigliano
Sarezzano,44.86456386950601,8.926430644692264,sarezzano
Serralunga di Crea,45.09913380307096,8.289379751799355,serralunga di crea
Serravalle Scrivia,44.72323764555073,8.84986213563091,serravalle scrivia
Sezzadio,44.758617990223094,8.587497306948253,sezzadio
Silvano d'Orba,44.67567340318372,8.678471197129888,silvano d'orba
Solero,44.9125087605325,8.50218113990519,solero
Solonghello,45.13035742481049,8.290138607818875,solonghello
Spigno Monferrato,44.532879608151305,8.340479789771315,spigno monferrato
Spineto Scrivia,44.837969995515486,8.873507994015517,spineto scrivia
Stazzano,44.73717184774037,8.899464929663294,stazzano
Strevi,44.69806129267859,8.52105054957914,strevi
Tagliolo Monferrato,44.61223577154774,8.696397071990127,tagliolo monferrato
Tassarolo,44.725961502618205,8.768651195763413,tassarolo
Terruggia,45.07693299319993,8.450304466809492,terruggia
Terzo,44.67726136273885,8.415869460758612,terzo
Ticineto,45.10194327036282,8.557766382446841,ticineto
Tortona,44.886973792074656,8.841797681575231,tortona
Treville,45.096544038305,8.355040547995836,treville
Trisobbio,44.66033563817561,8.586430491153783,trisobbio
Valenza,45.019098482509705,8.629668474072968,valenza
Valmacca,45.10414595633739,8.597126507360853,valmacca
Vignale Monferrato,45.00750551617282,8.400873440960526,vignale monferrato
Vignole Borbera,44.70972341094961,8.909453479121344,vignole borbera
Viguzzolo,44.90802648403249,8.924280750902785,viguzzolo
Villadeati,45.05896967713763,8.169251600438262,villadeati
Villalvernia,44.81030134966871,8.85855281063311,villalvernia
Villamiroglio,45.133898594651285,8.162439802431997,villamiroglio
Villanova Monferrato,45.18375371673998,8.472807423011805,villanova monferrato
Villaromagnano,44.84723794642611,8.897528053876913,villaromagnano
Visone,44.653980825383215,8.508588610585191,visone
Volpedo,44.88796787824249,8.99927702720663,volpedo
Volpeglino,44.89515870734635,8.95876250805462,volpeglino
Voltaggio,44.60252619666618,8.845340049803493,voltaggio
Cassano Spinola,44.770920399190246,8.869499061678761,cassano spinola
Alluvioni Piovera,44.96834792273801,8.755197670495185,alluvioni piovera
Ailoche,45.71721488227971,8.200119578474895,ailoche
Andorno Micca,45.64165945012949,8.005318035926898,andorno micca
Benna,45.51292602784618,8.13749215326003,benna
Biella,45.5927012803217,8.019735232071332,biella
Bioglio,45.658261062022156,8.08128628258974,bioglio
Borriana,45.50678103757464,8.038414812416994,borriana
Brusnengo,45.572005424248665,8.267290446805466,brusnengo
Callabiana,45.65028356652497,8.061602712808298,callabiana
Camandona,45.670485118978576,8.082569290663713,camandona
Camburzano,45.543075309193625,8.000241023960813,camburzano
Candelo,45.53832864628678,8.123807203046445,candelo
Caprile,45.72718066699367,8.165491142386873,caprile
Casapinta,45.61422880246819,8.19953336344718,casapinta
Castelletto Cervo,45.51943223790274,8.242611802221774,castelletto cervo
Cavaglià,45.402582541358704,8.109757852802767,cavaglià
Cerrione,45.47505409618391,8.071133715362139,cerrione
Coggiola,45.7131935094399,8.157065502199748,coggiola
Cossato,45.552556382429394,8.184379767509432,cossato
Crevacuore,45.696531139441674,8.210200009379154,crevacuore
Curino,45.63679550257403,8.236948738458613,curino
Donato,45.5427644261744,7.907510672558851,donato
Dorzano,45.426018577675926,8.109334413395116,dorzano
Gaglianico,45.53482702873493,8.080973679201188,gaglianico
Gifflenga,45.49430778692071,8.234680792946302,gifflenga
Graglia,45.57137107426043,7.939487398227757,graglia
Magnano,45.46936518274038,8.003680192674471,magnano
Massazza,45.485986661899666,8.163007524940987,massazza
Masserano,45.56973141007275,8.242507352218869,masserano
Mezzana Mortigliengo,45.62907642053355,8.189295115386852,mezzana mortigliengo
Miagliano,45.61599113462863,8.04288139166561,miagliano
Mongrando,45.52161090338427,7.995039313317601,mongrando
Mottalciata,45.5024215601235,8.203800280579214,mottalciata
Muzzano,45.571972894694845,7.963630622204706,muzzano
Netro,45.545340715752154,7.940270578428656,netro
Occhieppo Inferiore,45.544328406496916,8.023309991964112,occhieppo inferiore
Occhieppo Superiore,45.57048587502398,7.9969657669558885,occhieppo superiore
Pettinengo,45.66536853155269,8.066246322118115,pettinengo
Piatto,45.60434185086551,8.127115489323149,piatto
Piedicavallo,45.696773952846605,7.9589187397704935,piedicavallo
Pollone,45.60145378863254,7.96425077176252,pollone
Ponderano,45.53072485907676,8.050359300675032,ponderano
Portula,45.695278728295676,8.144837335074364,portula
Pralungo,45.60669617897011,8.023234625175435,pralungo
Pray,45.672980032438886,8.208181678897578,pray
Ronco Biellese,45.583183832699326,8.09362934373944,ronco biellese
Roppolo,45.4243133806586,8.0700836070897,roppolo
Rosazza,45.675378947612245,7.961966614388024,rosazza
Sagliano Micca,45.65270565047173,7.992687129438615,sagliano micca
Sala Biellese,45.510460674332556,7.9576750956953815,sala biellese
Salussola,45.451635934373066,8.13895824961537,salussola
Sandigliano,45.51201489303076,8.078239397532583,sandigliano
Sordevolo,45.596694821951836,7.949731370433459,sordevolo
Sostegno,45.65103830011291,8.2814392469939,sostegno
Strona,45.623464181094846,8.17146063921124,strona
Tavigliano,45.66324706106092,8.03645061584643,tavigliano
Ternengo,45.58925854979058,8.11537491857178,ternengo
Tollegno,45.5996728512291,8.04443167229555,tollegno
Torrazzo,45.49843336912616,7.949882492877762,torrazzo
Valdengo,45.567302024286484,8.136773336005405,valdengo
Vallanzengo,45.66218889219219,8.09796917593107,vallanzengo
Valle San Nicolao,45.67912395905976,8.080863953920543,valle san nicolao
Veglio,45.65384744533438,8.091184570309345,veglio
Verrone,45.498764067678955,8.117037564348728,verrone
Vigliano Biellese,45.56251751392152,8.110966172594155,vigliano biellese
Villa del Bosco,45.62160216324823,8.287509691060325,villa del bosco
Villanova Biellese,45.47200457799696,8.198676367536866,villanova biellese
Viverone,45.42084630143336,8.04434221238932,viverone
Zimone,45.44998291792438,8.042039911399266,zimone
Zubiena,45.489864339544624,8.007724509552602,zubiena
Zumaglia,45.59394754441471,8.085874494784958,zumaglia
Lessona,45.57181899790866,8.210789527157665,lessona
Campiglia Cervo,45.661167343908176,8.001371618832193,campiglia cervo
Antrona Schieranco,46.05719016465553,8.085744320440716,antrona schieranco
Anzola d'Ossola,45.970252511221325,8.34016181928181,anzola d'ossola
Arizzano,45.95531771659643,8.581846808268317,arizzano
Arola,45.816060643677126,8.344507528590604,arola
Aurano,46.024810511246514,8.580698234472623,aurano
Baceno,46.31775735874481,8.280121438087138,baceno
Bannio Anzino,45.95654726438525,8.13699341192266,bannio anzino
Baveno,45.915500261147734,8.493660214661736,baveno
Bee,45.96924975851537,8.578435060253911,bee
Belgirate,45.845494438849464,8.579069398230114,belgirate
Beura-Cardezza,46.05640140694464,8.320230878603562,beura-cardezza
Bognanco,46.12915513457849,8.176481390244508,bognanco
Brovello-Carpugnino,45.84900490262689,8.527818182468852,brovello-carpugnino
Calasca-Castiglione,45.999697956562,8.183700342605858,calasca-castiglione
Cambiasca,45.969079895225676,8.542875418955013,cambiasca
Cannero Riviera,46.01424098576003,8.67509376785521,cannero riviera
Cannobio,46.068526520676635,8.671578339937701,cannobio
Caprezzo,45.992442415047336,8.549544223696172,caprezzo
Casale Corte Cerro,45.9219085217404,8.406020258591917,casale corte cerro
Ceppo Morelli,45.97638568234749,8.051384863900404,ceppo morelli
Cesara,45.832727506994466,8.35562439632536,cesara
Cossogno,46.01894329787385,8.476231468250784,cossogno
Craveggia,46.17561349816258,8.509450372726022,craveggia
Crevoladossola,46.165288362275085,8.279336173084499,crevoladossola
Crodo,46.24323636654454,8.295253325677795,crodo
Domodossola,46.12312226670552,8.253887216867565,domodossola
Druogno,46.13190430982218,8.412332151426396,druogno
Formazza,46.398177572069685,8.400145727821352,formazza
Germagno,45.89882965906139,8.385503496950324,germagno
Ghiffa,45.95811438275024,8.617244516237864,ghiffa
Gignese,45.864263198849656,8.499304303537869,gignese
Gravellona Toce,45.919326012955345,8.437815233332401,gravellona toce
Gurro,46.08079416179388,8.54639407845695,gurro
Intragna,46.00821706417746,8.563281651979295,intragna
Loreglia,45.92278906487509,8.367944207913299,loreglia
Macugnaga,45.95352859320339,7.955460201608858,macugnaga
Madonna del Sasso,45.790627415978065,8.344074626384065,madonna del sasso
Malesco,46.09186546039335,8.48318831950809,malesco
Masera,46.14346444869355,8.3531683361915,masera
Massiola,45.92902417133011,8.313332526423936,massiola
Mergozzo,45.97467034221059,8.434292699982608,mergozzo
Miazzina,46.015826143107894,8.519641292559196,miazzina
Montecrestese,46.21544827364841,8.38984294226255,montecrestese
Montescheno,46.080112187909634,8.195203746421148,montescheno
Nonio,45.85334483546729,8.365900155448722,nonio
Oggebbio,45.9948422216695,8.644434160943792,oggebbio
Omegna,45.87073791304646,8.417987382803258,omegna
Ornavasso,45.96281030879476,8.387800990477094,ornavasso
Pallanzeno,46.04233638063568,8.24970939126873,pallanzeno
Piedimulera,46.023647006672306,8.247599654060657,piedimulera
Pieve Vergonte,45.983503579946955,8.274077834461943,pieve vergonte
Premeno,45.982707759527315,8.599643745791457,premeno
Premia,46.30625028485145,8.361959671668453,premia
Premosello-Chiovenda,46.01648056679859,8.362083373307506,premosello-chiovenda
Quarna Sopra,45.88904404811462,8.362486196848069,quarna sopra
Quarna Sotto,45.87701677584517,8.328531351879553,quarna sotto
Re,46.14871064804693,8.567677908125145,re
San Bernardino Verbano,45.99105272978297,8.458766947125337,san bernardino verbano
Santa Maria Maggiore,46.16334076669174,8.449641141229478,santa maria maggiore
Stresa,45.88689184664597,8.525411726144903,stresa
Toceno,46.175368480547995,8.480098688317327,toceno
Trarego Viggiona,46.03860154074631,8.642965047450819,trarego viggiona
Trasquera,46.21627098433272,8.18159471198722,trasquera
Trontano,46.08908792902096,8.364460205476329,trontano
Valstrona,45.92661354865786,8.282720651822403,valstrona
Vanzone con San Carlo,45.98655960961562,8.106144603732744,vanzone con san carlo
Varzo,46.24331553494274,8.197102398751166,varzo
Verbania,45.93514967387293,8.540300597592777,verbania
Vignone,45.964156290145574,8.562932500221166,vignone
Villadossola,46.07141086518858,8.258578075796283,villadossola
Villette,46.13441233518268,8.536942893742651,villette
Vogogna,46.021940385122974,8.298097019276543,vogogna
Borgomezzavalle,46.04732105701654,8.188816461675398,borgomezzavalle
Allein,45.81616149607912,7.274666193348566,allein
Antey-Saint-André,45.80907837511758,7.599831155275573,antey-saint-andré
Aosta,45.74928672520047,7.3013877533584015,aosta
Arnad,45.64371706452455,7.739713242344953,arnad
Arvier,45.670914714644496,7.112330723340888,arvier
Avise,45.7301021733549,7.112169126653555,avise
Ayas,45.8567962412854,7.730304386076994,ayas
Aymavilles,45.653736504949954,7.252942611256849,aymavilles
Bard,45.61648867272089,7.748366056735507,bard
Bionaz,45.90983077978411,7.491130822642162,bionaz
Brissogne,45.70446538077407,7.403975310687522,brissogne
Brusson,45.762322450212594,7.754302718975898,brusson
Challand-Saint-Anselme,45.71426267406162,7.759207796597359,challand-saint-anselme
Challand-Saint-Victor,45.683478064422644,7.7409241172367675,challand-saint-victor
Chambave,45.71867952980721,7.546194865896744,chambave
Chamois,45.840463312255416,7.642891569050291,chamois
Champdepraz,45.67095163757407,7.5985046020880445,champdepraz
Champorcher,45.60796002087883,7.581948738963684,champorcher
Charvensod,45.69052762038427,7.34462119883988,charvensod
Châtillon,45.759614985766135,7.626599023977181,châtillon
Cogne,45.590014661247366,7.368517145071047,cogne
Courmayeur,45.825726888442716,6.950806405360286,courmayeur
Donnas,45.58420481224819,7.7489808546764785,donnas
Doues,45.83213046802801,7.290175396272631,doues
Emarèse,45.7252672086236,7.70306597628791,emarèse
Etroubles,45.84477738175701,7.2321631254580065,etroubles
Fénis,45.674574501902626,7.504229305102405,fénis
Fontainemore,45.648757194256596,7.884063719340988,fontainemore
Gaby,45.7144708273369,7.883136410901861,gaby
Gignod,45.78328152544036,7.260635237405259,gignod
Gressan,45.68717308022938,7.304678125985571,gressan
Gressoney-La-Trinité,45.87195072734864,7.828376815034211,gressoney-la-trinité
Gressoney-Saint-Jean,45.77729251374226,7.837527873281653,gressoney-saint-jean
Hône,45.60928801315836,7.721301767073288,hône
Introd,45.67163330189495,7.179029649639201,introd
Issime,45.684260781655816,7.837493439931055,issime
Issogne,45.651751181047025,7.659888215688204,issogne
Jovençan,45.69971699477135,7.274933375325953,jovençan
La Magdeleine,45.815964371169,7.628685277145659,la magdeleine
La Salle,45.74541687608261,7.068268826849039,la salle
La Thuile,45.701208118726306,6.920570785501784,la thuile
Lillianes,45.62442286360284,7.8581736481477895,lillianes
Montjovet,45.711832025761005,7.665342356773431,montjovet
Morgex,45.753878241024786,7.019411944971932,morgex
Nus,45.80789398324546,7.497727773622565,nus
Ollomont,45.88218490553259,7.3117457880826295,ollomont
Oyace,45.84171226457308,7.407694424489616,oyace
Perloz,45.62860626850055,7.811432046083429,perloz
Pollein,45.709894319525205,7.368292826818463,pollein
Pontboset,45.590173468959904,7.671627144807465,pontboset
Pontey,45.721697583001564,7.584287372732899,pontey
Pont-Saint-Martin,45.59894089910451,7.811917749600725,pont-saint-martin
Pré-Saint-Didier,45.75835245214305,6.954653607029873,pré-saint-didier
Quart,45.780182257836415,7.423852332623986,quart
Rhêmes-Notre-Dame,45.5348657989731,7.105509130685547,rhêmes-notre-dame
Rhêmes-Saint-Georges,45.627431501159684,7.145247714199172,rhêmes-saint-georges
Roisan,45.7891587602102,7.32626357826371,roisan
Saint-Christophe,45.76425959738619,7.354691754096213,saint-christophe
Saint-Denis,45.759183843431494,7.573530174878751,saint-denis
Saint-Marcel,45.68914674931987,7.449230837720762,saint-marcel
Saint-Nicolas,45.726657395258144,7.1627336704491995,saint-nicolas
Saint-Oyen,45.82088200257789,7.204463887558861,saint-oyen
Saint-Pierre,45.738700752770185,7.199553090649382,saint-pierre
Saint-Rhémy-en-Bosses,45.82907648613979,7.148056269060326,saint-rhémy-en-bosses
Saint-Vincent,45.75627191014267,7.672899919612219,saint-vincent
Sarre,45.747574829382586,7.2405051448820315,sarre
Torgnon,45.831422279006645,7.562355724102561,torgnon
Valgrisenche,45.58422305052402,7.040562480856946,valgrisenche
Valpelline,45.82423342520623,7.357145455981447,valpelline
Valsavarenche,45.551799314048836,7.20977585949824,valsavarenche
Valtournenche,45.90964064750859,7.634655003282641,valtournenche
Verrayes,45.77169358194032,7.528072323683357,verrayes
Verrès,45.66774948760946,7.696401337944898,verrès
Villeneuve,45.691710235930096,7.208749445821384,villeneuve
Agra,46.03617775982794,8.76464759881088,agra
Albizzate,45.72593663688433,8.799911972956725,albizzate
Angera,45.775699951289894,8.593956825154617,angera
Arcisate,45.85466610938278,8.870846316763242,arcisate
Arsago Seprio,45.69644236398489,8.734722857296243,arsago seprio
Azzate,45.77915243404944,8.790992678836655,azzate
Azzio,45.88828195307428,8.707105060137627,azzio
Barasso,45.84986655319099,8.75788864673079,barasso
Bedero Valcuvia,45.911469337960185,8.798099841122376,bedero valcuvia
Besano,45.88911014045137,8.898379518455885,besano
Besnate,45.70150278963272,8.762670352619532,besnate
Besozzo,45.84921690340175,8.65572850178192,besozzo
Biandronno,45.8142996616219,8.714751145375535,biandronno
Bisuschio,45.88027819772325,8.866860721244432,bisuschio
Bodio Lomnago,45.78877677518806,8.752128622780678,bodio lomnago
Brebbia,45.83139682513328,8.64001170736332,brebbia
Brenta,45.9062216721681,8.686680758673983,brenta
Brezzo di Bedero,45.97904919829257,8.714736984300199,brezzo di bedero
Brinzio,45.88781617516966,8.792617431437087,brinzio
Brissago-Valtravaglia,45.95216168373827,8.737800903808836,brissago-valtravaglia
Brunello,45.76678043259388,8.798754584134384,brunello
Brusimpiano,45.94102424378981,8.884419850383006,brusimpiano
Buguggiate,45.78407131119438,8.806585738251393,buguggiate
Busto Arsizio,45.605896406557626,8.841892179332737,busto arsizio
Cadegliano-Viconago,45.96776772983223,8.831800786462448,cadegliano-viconago
Cairate,45.68890390666731,8.858784796712797,cairate
Cantello,45.82634572569164,8.892019080567934,cantello
Caravate,45.877769754291826,8.654374415608908,caravate
Cardano al Campo,45.644774007639846,8.756696097911286,cardano al campo
Carnago,45.717611775380995,8.839933278759368,carnago
Caronno Pertusella,45.59469045659189,9.045624124611447,caronno pertusella
Caronno Varesino,45.73990528365649,8.830633642117473,caronno varesino
Casale Litta,45.76362779859063,8.730690496288073,casale litta
Casalzuigno,45.91279114819801,8.707681242667793,casalzuigno
Casciago,45.82945701060187,8.775060603760998,casciago
Casorate Sempione,45.66416169080903,8.742527748914569,casorate sempione
Cassano Magnago,45.6686872611583,8.82915137252104,cassano magnago
Cassano Valcuvia,45.93212881138021,8.76279121635669,cassano valcuvia
Castellanza,45.61125428760424,8.899894776248344,castellanza
Castello Cabiaglio,45.8853171398303,8.764449505705764,castello cabiaglio
Castelseprio,45.71606109909072,8.861007399099332,castelseprio
Castelveccana,45.94043058946332,8.664826512549364,castelveccana
Castiglione Olona,45.75551622390278,8.866414395696165,castiglione olona
Castronno,45.75255389164876,8.810649914975711,castronno
Cavaria con Premezzo,45.69352141189876,8.796269957008766,cavaria con premezzo
Cazzago Brabbia,45.799805194269936,8.733417849162477,cazzago brabbia
Cislago,45.65311833477708,8.963261044765646,cislago
Cittiglio,45.90648951869983,8.661572961867082,cittiglio
Clivio,45.85727105527458,8.923769319997184,clivio
Cocquio-Trevisago,45.86559025002019,8.696290006664475,cocquio-trevisago
Comabbio,45.77225148262289,8.677636220933298,comabbio
Comerio,45.8526363445971,8.743400573351083,comerio
Cremenaga,45.982497588684176,8.799967161592015,cremenaga
Crosio della Valle,45.75999213067735,8.766675102549188,crosio della valle
Cuasso al Monte,45.90934624328915,8.868320195393062,cuasso al monte
Cugliate-Fabiasco,45.9438130189759,8.817956367789721,cugliate-fabiasco
Cunardo,45.93493583549149,8.802692071655205,cunardo
Curiglia con Monteviasco,46.06189265679962,8.828173697712803,curiglia con monteviasco
Cuveglio,45.908969397508095,8.745075246697601,cuveglio
Cuvio,45.88816031491778,8.737556538546299,cuvio
Daverio,45.772523124141784,8.767178985916347,daverio
Dumenza,46.03313970937822,8.79508573384331,dumenza
Duno,45.92179195338043,8.735706231179794,duno
Fagnano Olona,45.666539073546495,8.865596698150002,fagnano olona
Ferno,45.61888297526189,8.739936060020316,ferno
Ferrera di Varese,45.9307294300862,8.786502401573825,ferrera di varese
Gallarate,45.662737255952145,8.793176281932578,gallarate
Galliate Lombardo,45.78973595638727,8.771818185133222,galliate lombardo
Gavirate,45.84185646231204,8.725716189429969,gavirate
Gazzada Schianno,45.77922225339424,8.831570009136346,gazzada schianno
Gemonio,45.882476695996445,8.68087231697014,gemonio
Gerenzano,45.63405553249207,8.989887576058178,gerenzano
Germignaga,45.991557517962654,8.723896337176091,germignaga
Golasecca,45.696814105337424,8.663613248086586,golasecca
Gorla Maggiore,45.66632673994675,8.901381631533415,gorla maggiore
Gorla Minore,45.6476733292573,8.913464931887496,gorla minore
Gornate Olona,45.73652014788372,8.862331217953251,gornate olona
Grantola,45.946546869142324,8.780724675680228,grantola
Inarzo,45.78656380134119,8.729265378428398,inarzo
Induno Olona,45.85670216434408,8.836056431769592,induno olona
Ispra,45.813831781281586,8.61218801358021,ispra
Jerago con Orago,45.70738988600191,8.792989884148252,jerago con orago
Lavena Ponte Tresa,45.957023999845845,8.861864091355022,lavena ponte tresa
Laveno-Mombello,45.907081783392975,8.612808144666147,laveno-mombello
Leggiuno,45.87149565533087,8.60257469960453,leggiuno
Lonate Ceppino,45.707217490837756,8.880864567312793,lonate ceppino
Lonate Pozzolo,45.589810413760816,8.734531658434532,lonate pozzolo
Lozza,45.77509851930502,8.863061060384013,lozza
Luino,46.00374940332069,8.752426079853702,luino
Luvinate,45.84746122996404,8.769487987952353,luvinate
Malnate,45.797066120805695,8.882519384075403,malnate
Marchirolo,45.94086744662705,8.83749715556203,marchirolo
Marnate,45.6303688323714,8.913634567337564,marnate
Marzio,45.936709266958154,8.859440625877925,marzio
Masciago Primo,45.91979480110078,8.78611967307738,masciago primo
Mercallo,45.751403712467784,8.669042872403995,mercallo
Mesenzana,45.94447107613868,8.752426410879071,mesenzana
Montegrino Valtravaglia,45.967416436871545,8.778418517395952,montegrino valtravaglia
Monvalle,45.85138918767598,8.62069599851565,monvalle
Morazzone,45.76309284931364,8.834064853434002,morazzone
Mornago,45.736721735235925,8.750979126777665,mornago
Oggiona con Santo Stefano,45.69990904171389,8.81874088612274,oggiona con santo stefano
Olgiate Olona,45.62971396970978,8.877629368913627,olgiate olona
Origgio,45.59323294231173,9.01005093126951,origgio
Orino,45.879709935272345,8.721772284990367,orino
Porto Ceresio,45.90739575718244,8.905987911988001,porto ceresio
Porto Valtravaglia,45.95952978916988,8.696314579592267,porto valtravaglia
Rancio Valcuvia,45.91317611872382,8.772356701169064,rancio valcuvia
Ranco,45.79773531525175,8.575322170166682,ranco
Saltrio,45.876910890716786,8.924838749771146,saltrio
Samarate,45.62343387012096,8.782227573735087,samarate
Saronno,45.627364902597606,9.03661894088205,saronno
Sesto Calende,45.7399400819102,8.635875011117268,sesto calende
Solbiate Arno,45.717973097801355,8.81618185471387,solbiate arno
Solbiate Olona,45.6491374969385,8.874053824454139,solbiate olona
Somma Lombardo,45.66925944172273,8.698659097559993,somma lombardo
Sumirago,45.73696444395423,8.781989522007528,sumirago
Taino,45.762660047170115,8.618508783168842,taino
Ternate,45.78575259726323,8.69547372149155,ternate
Tradate,45.71533332140252,8.918452045299366,tradate
Travedona-Monate,45.804604061347305,8.672180934712271,travedona-monate
Tronzano Lago Maggiore,46.085085570391044,8.730700150557345,tronzano lago maggiore
Uboldo,45.609609861537805,8.99214303763953,uboldo
Valganna,45.9024113070553,8.825941139836816,valganna
Varano Borghi,45.77095125262501,8.704146042845704,varano borghi
Varese,45.8239052770645,8.812953544169623,varese
Vedano Olona,45.773129208159475,8.887952864333814,vedano olona
Venegono Inferiore,45.73667767188895,8.902357781407447,venegono inferiore
Venegono Superiore,45.753504685971116,8.902763901443636,venegono superiore
Vergiate,45.73188223956768,8.70045947163816,vergiate
Viggiù,45.869111827609515,8.905284933205639,viggiù
Vizzola Ticino,45.626366787817844,8.685754113117252,vizzola ticino
Sangiano,45.87776631214458,8.632986252461288,sangiano
Maccagno con Pino e Veddasca,46.07249774037721,8.765952858236744,maccagno con pino e veddasca
Albavilla,45.81002060669465,9.185230724219664,albavilla
Albese con Cassano,45.80782439284405,9.163947811655357,albese con cassano
Albiolo,45.80560987717331,8.942110518533818,albiolo
Alserio,45.780204645188675,9.203824017773918,alserio
Alzate Brianza,45.76149614870933,9.18224621509016,alzate brianza
Anzano del Parco,45.76952283226147,9.2094447727528,anzano del parco
Appiano Gentile,45.73570871869574,8.96778619347846,appiano gentile
Argegno,45.94052327499423,9.127121419047626,argegno
Arosio,45.72026797066445,9.209541942837596,arosio
Asso,45.86447926039945,9.264199015995787,asso
Barni,45.9064928030147,9.26685234267865,barni
Bene Lario,46.02446293871549,9.171741577541278,bene lario
Beregazzo con Figliaro,45.7723027744519,8.951866077027127,beregazzo con figliaro
Binago,45.77511230060935,8.92118766938875,binago
Bizzarone,45.83580007342836,8.944267072122305,bizzarone
Blessagno,45.96545062688431,9.102247328580281,blessagno
Blevio,45.838057608911704,9.105334116056074,blevio
Bregnano,45.695712131474686,9.05711533528094,bregnano
Brenna,45.73969642409823,9.182852983607283,brenna
Brienno,45.91407187820325,9.12689502780967,brienno
Brunate,45.82081655330468,9.099611510268,brunate
Bulgarograsso,45.74781477918826,9.005195100963741,bulgarograsso
Cabiate,45.67624646587473,9.170916548359765,cabiate
Cadorago,45.72132305788368,9.042414261271917,cadorago
Caglio,45.870546579052196,9.22062349696447,caglio
Campione d'Italia,45.971886938468316,8.969389003857051,campione d'italia
Cantù,45.73892182713082,9.140890137885291,cantù
Canzo,45.8484057749534,9.290923394020297,canzo
Capiago Intimiano,45.77024053806991,9.127970408677156,capiago intimiano
Carate Urio,45.87897293328912,9.11352040265982,carate urio
Carbonate,45.688229974990655,8.93925778609082,carbonate
Carimate,45.70900341946183,9.110793911720334,carimate
Carlazzo,46.051880185135786,9.158330573752046,carlazzo
Carugo,45.717025689882085,9.193048808597649,carugo
Caslino d'Erba,45.846197876622874,9.220379291478475,caslino d'erba
Casnate con Bernate,45.759859180505735,9.073140873305588,casnate con bernate
Cassina Rizzardi,45.750709373526334,9.027304871819439,cassina rizzardi
Castelmarte,45.83562571600034,9.243175677393586,castelmarte
Castelnuovo Bozzente,45.75911176460286,8.94135108045362,castelnuovo bozzente
Cavargna,46.106674616084064,9.101353423238901,cavargna
Cerano d'Intelvi,45.931610588993834,9.07429240098968,cerano d'intelvi
Cermenate,45.70027006001552,9.081938074085503,cermenate
Cernobbio,45.85557595255365,9.070456671343827,cernobbio
Cirimido,45.69663766698038,9.012717367477046,cirimido
Claino con Osteno,46.00993756897915,9.095295066859963,claino con osteno
Colonno,45.963739533312676,9.144142856784999,colonno
Como,45.80446372791788,9.081288630074944,como
Corrido,46.055087718104346,9.124597022985748,corrido
Cremia,46.08734782354232,9.256994556644948,cremia
Cucciago,45.73892799704871,9.097785729159689,cucciago
Cusino,46.08601224732948,9.17443858845499,cusino
Dizzasco,45.94809389890449,9.11306960781216,dizzasco
Domaso,46.15082541156769,9.330850193409043,domaso
Dongo,46.1247195196499,9.270398546828037,dongo
Dosso del Liro,46.19576812750423,9.2364286014309,dosso del liro
Erba,45.81214672934676,9.217509513703398,erba
Eupilio,45.815352876323864,9.266387049806182,eupilio
Faggeto Lario,45.85755358291133,9.171056802474462,faggeto lario
Faloppio,45.808055558700204,8.969776533245982,faloppio
Fenegrò,45.69522462119215,8.998701893703835,fenegrò
Figino Serenza,45.71263285255711,9.134819907308371,figino serenza
Fino Mornasco,45.74130101738074,9.055542210616506,fino mornasco
Garzeno,46.12909902329983,9.195692213651947,garzeno
Gera Lario,46.15904001962978,9.388013878559004,gera lario
Grandate,45.773353169449784,9.056686423714515,grandate
Grandola ed Uniti,46.04413688882141,9.194625830779913,grandola ed uniti
Griante,45.9989963226278,9.239706505287618,griante
Guanzate,45.726661617649,9.011458116703439,guanzate
Inverigo,45.73768054236244,9.224869201474702,inverigo
Laglio,45.888033476285514,9.13302096861478,laglio
Laino,45.982227810587595,9.099046869153836,laino
Lambrugo,45.76014998035844,9.242919751829374,lambrugo
Lasnigo,45.887744812987656,9.267363956644742,lasnigo
Lezzeno,45.94209321497827,9.195099865372159,lezzeno
Limido Comasco,45.686630786308235,8.977910502075627,limido comasco
Lipomo,45.790520998850745,9.121784630906276,lipomo
Livo,46.20995434710002,9.294929771113626,livo
Locate Varesino,45.68968851011103,8.924277501952558,locate varesino
Lomazzo,45.691267094547506,9.032784173596744,lomazzo
Longone al Segrino,45.822553770111924,9.255807708899386,longone al segrino
Luisago,45.76120846048749,9.04225105949127,luisago
Lurago d'Erba,45.755864176505064,9.221107235942204,lurago d'erba
Lurago Marinone,45.704578484902555,8.975429623977261,lurago marinone
Lurate Caccivio,45.76621902821951,8.993556649453788,lurate caccivio
Magreglio,45.91865112082669,9.251571270250059,magreglio
Mariano Comense,45.69748439830386,9.175105268573857,mariano comense
Maslianico,45.844732046646136,9.048290764697786,maslianico
Menaggio,46.02127606805088,9.237375827211217,menaggio
Merone,45.784435971828344,9.248454802046286,merone
Moltrasio,45.87159754403354,9.092260499219043,moltrasio
Monguzzo,45.77980955773729,9.228554052241188,monguzzo
Montano Lucino,45.791291521077795,9.031008210650517,montano lucino
Montemezzo,46.196297233563776,9.364568580452282,montemezzo
Montorfano,45.78106760424177,9.146609499155362,montorfano
Mozzate,45.675528149051964,8.949941629729635,mozzate
Musso,46.11398137769709,9.270000090506576,musso
Nesso,45.90417969226778,9.167887077634491,nesso
Novedrate,45.6980588249375,9.132137537277146,novedrate
Olgiate Comasco,45.78613002027554,8.96987376725253,olgiate comasco
Oltrona di San Mamette,45.75465526581163,8.971296977977083,oltrona di san mamette
Orsenigo,45.77841143655844,9.177544946299225,orsenigo
Peglio,46.18136352397318,9.276803747019937,peglio
Pianello del Lario,46.10240184429873,9.260937400345192,pianello del lario
Pigra,45.964198189816265,9.123279527404282,pigra
Plesio,46.060687691218945,9.215586878222583,plesio
Pognana Lario,45.88177336251367,9.162652005666743,pognana lario
Ponna,45.994545437313846,9.110719012524136,ponna
Ponte Lambro,45.829178500198566,9.218855491750832,ponte lambro
Porlezza,46.028546390929485,9.119927337874282,porlezza
Proserpio,45.829803418019914,9.251622554391538,proserpio
Pusiano,45.81807925230518,9.282385737203198,pusiano
Rezzago,45.85838313629287,9.238628763323868,rezzago
Rodero,45.82564459873017,8.918836028996948,rodero
Ronago,45.83118383409537,8.985238236692389,ronago
Rovellasca,45.668076050180325,9.049085609960798,rovellasca
Rovello Porro,45.654572293673176,9.037073808888257,rovello porro
Sala Comacina,45.96976918076105,9.156559038827353,sala comacina
San Bartolomeo Val Cavargna,46.097436937239486,9.157677524920398,san bartolomeo val cavargna
San Fermo della Battaglia,45.80901413210342,9.03669223798711,san fermo della battaglia
San Nazzaro Val Cavargna,46.10705946957451,9.131731114031961,san nazzaro val cavargna
Schignano,45.9189537985611,9.097212259022788,schignano
Senna Comasco,45.761133735262796,9.102008429576705,senna comasco
Sorico,46.187835769948784,9.403973095299602,sorico
Sormano,45.89382276242473,9.2325661983267,sormano
Stazzona,46.150714538271686,9.250368913232455,stazzona
Tavernerio,45.8131616783486,9.140824625603615,tavernerio
Torno,45.85053111099323,9.128994960943986,torno
Trezzone,46.18194245012052,9.350003512763461,trezzone
Turate,45.66075126823853,9.004887332682115,turate
Uggiate-Trevano,45.823182443797485,8.963157606582445,uggiate-trevano
Valbrona,45.87730578308169,9.303856705958447,valbrona
Valmorea,45.81955380526793,8.934245853045498,valmorea
Val Rezzo,46.071857369348834,9.09893712368031,val rezzo
Valsolda,46.0352676261079,9.050491678328614,valsolda
Veleso,45.91521109569866,9.185868743796046,veleso
Veniano,45.71718094439134,8.982639685335965,veniano
Vercana,46.18922667861165,9.335609217259915,vercana
Vertemate con Minoprio,45.72681448680031,9.078829388589181,vertemate con minoprio
Villa Guardia,45.77491198195848,9.022436250821261,villa guardia
Zelbio,45.90172846147264,9.199614405975062,zelbio
San Siro,46.06103448753448,9.25809371195478,san siro
Gravedona ed Uniti,46.15566598168515,9.222077887589574,gravedona ed uniti
Bellagio,45.95560378917427,9.249592020974758,bellagio
Colverde,45.80582406386264,9.001362673824632,colverde
Tremezzina,45.984474957497426,9.187308272060568,tremezzina
Alta Valle Intelvi,45.975267765385034,9.03662005208268,alta valle intelvi
Centro Valle Intelvi,45.94680513724086,9.061319534975993,centro valle intelvi
Albaredo per San Marco,46.07979940045369,9.620498333934906,albaredo per san marco
Albosaggia,46.12605035338277,9.859619066971394,albosaggia
Andalo Valtellino,46.11603538679927,9.47402879079626,andalo valtellino
Aprica,46.131509729083916,10.14661607453462,aprica
Ardenno,46.180771849190066,9.64602644367057,ardenno
Bema,46.079221451654,9.583506299662934,bema
Berbenno di Valtellina,46.191380917369855,9.738308877187361,berbenno di valtellina
Bianzone,46.201097414970306,10.098346444530632,bianzone
Bormio,46.49811363386502,10.407612193901127,bormio
Buglio in Monte,46.210014065913306,9.700087349979182,buglio in monte
Caiolo,46.108623751258115,9.818067176980446,caiolo
Campodolcino,46.40236715931528,9.348031738750006,campodolcino
Caspoggio,46.25352797960372,9.872832652202877,caspoggio
Castello dell'Acqua,46.13986255891179,10.013207348641831,castello dell'acqua
Castione Andevenno,46.184342963014146,9.806192326293319,castione andevenno
Cedrasco,46.11099296690131,9.791970471243662,cedrasco
Cercino,46.16537117108928,9.507233231508195,cercino
Chiavenna,46.32677256236615,9.404972576645795,chiavenna
Chiesa in Valmalenco,46.30045645941139,9.798300490106648,chiesa in valmalenco
Chiuro,46.23361572184743,10.013228190226114,chiuro
Cino,46.1684924555651,9.486007383467163,cino
Civo,46.17949419448751,9.584439947390187,civo
Colorina,46.14151416505791,9.720638579191634,colorina
Cosio Valtellino,46.121311208098064,9.526610199609403,cosio valtellino
Dazio,46.159292815223026,9.614440175524999,dazio
Delebio,46.1124562195973,9.447351002166682,delebio
Dubino,46.166266113177045,9.444573796604491,dubino
Faedo Valtellino,46.14406814614163,9.902983711253357,faedo valtellino
Forcola,46.138911922743304,9.683371925150032,forcola
Fusine,46.10009800194798,9.763419605498369,fusine
Gerola Alta,46.04625349438462,9.5507390269191,gerola alta
Gordona,46.27950484164358,9.3122201528615,gordona
Grosio,46.34752993209764,10.222402263013242,grosio
Grosotto,46.29620680539567,10.215012851879694,grosotto
Madesimo,46.45942777089357,9.330300553535507,madesimo
Lanzada,46.319252444813294,9.921659575378317,lanzada
Livigno,46.52466621645056,10.13690731285029,livigno
Lovero,46.22774256093954,10.232412231508528,lovero
Mantello,46.15624318454871,9.478686856302296,mantello
Mazzo di Valtellina,46.25913535889262,10.259693272935742,mazzo di valtellina
Mello,46.17014475275381,9.542391526298715,mello
Mese,46.30822164941309,9.376799262364603,mese
Montagna in Valtellina,46.22210025623931,9.924196335640355,montagna in valtellina
Morbegno,46.13303596650103,9.586733317975936,morbegno
Novate Mezzola,46.242009004198614,9.506134069004517,novate mezzola
Pedesina,46.07909248739209,9.52281122970031,pedesina
Piantedo,46.12719716253338,9.42341198862976,piantedo
Piateda,46.09522615087704,9.91111852648761,piateda
Piuro,46.39612132259415,9.440178607668894,piuro
Poggiridenti,46.172639177506085,9.926030079379874,poggiridenti
Ponte in Valtellina,46.14003848143094,9.982380618810458,ponte in valtellina
Postalesio,46.18841267267013,9.778486822109715,postalesio
Prata Camportaccio,46.284451791477764,9.423473228410826,prata camportaccio
Rasura,46.09352535415266,9.533833156966427,rasura
Rogolo,46.10137906544475,9.486475448678268,rogolo
Samolaco,46.241462209094855,9.379453152750486,samolaco
San Giacomo Filippo,46.35377689561023,9.347530757558603,san giacomo filippo
Sernio,46.224520484011904,10.20959841655183,sernio
Sondalo,46.34289152960683,10.366514451091748,sondalo
Sondrio,46.18034728069807,9.85689264745302,sondrio
Spriana,46.217173938417346,9.881674877818401,spriana
Talamona,46.12300504833667,9.628124605380057,talamona
Tartano,46.090310921952174,9.687760051209406,tartano
Teglio,46.130251827227205,10.087036277888368,teglio
Tirano,46.21185864725283,10.179539597509027,tirano
Torre di Santa Maria,46.23229718181492,9.81423794155607,torre di santa maria
Tovo di Sant'Agata,46.23232269481942,10.265929545448298,tovo di sant'agata
Traona,46.151288790905426,9.526671312205686,traona
Tresivio,46.19880856034384,9.951324838715992,tresivio
Valdidentro,46.488536042417465,10.264400779816352,valdidentro
Valdisotto,46.41826376161359,10.348684896964851,valdisotto
Valfurva,46.427508721996034,10.508698154848693,valfurva
Val Masino,46.25101804418843,9.639387989144248,val masino
Verceia,46.19682297777885,9.467360304633988,verceia
Vervio,46.262224211238795,10.207214568095281,vervio
Villa di Chiavenna,46.32157154867619,9.496121914606851,villa di chiavenna
Villa di Tirano,46.18774717444335,10.140000872850585,villa di tirano
Abbiategrasso,45.381882485653044,8.895203596035355,abbiategrasso
Albairate,45.42253491436924,8.945451665895984,albairate
Arconate,45.540279485278916,8.841543018813713,arconate
Arese,45.550819545707206,9.073460329177687,arese
Arluno,45.50885898412989,8.942084131552738,arluno
Assago,45.40240569707044,9.134872083657438,assago
Bareggio,45.474662248300824,8.999674147934304,bareggio
Basiano,45.58110034354855,9.463404005995118,basiano
Basiglio,45.34964586521816,9.164982507187748,basiglio
Bellinzago Lombardo,45.534850369461914,9.444549654864007,bellinzago lombardo
Bernate Ticino,45.47738979034662,8.811924576883266,bernate ticino
Besate,45.30633629476815,8.965328702283513,besate
Binasco,45.33077628575754,9.102269454730454,binasco
Boffalora sopra Ticino,45.46014287459463,8.830227575633453,boffalora sopra ticino
Bollate,45.549998854787304,9.11478094753317,bollate
Bresso,45.5362456129601,9.194690774023007,bresso
Bubbiano,45.32858427263203,9.003641261073813,bubbiano
Buccinasco,45.407922172987575,9.108813025036964,buccinasco
Buscate,45.54586154193511,8.813032119540717,buscate
Bussero,45.53675655479684,9.370296712226365,bussero
Busto Garolfo,45.544700110432245,8.88472254095417,busto garolfo
Calvignasco,45.32710524101214,9.025902899208592,calvignasco
Cambiago,45.57210280906735,9.422320299695347,cambiago
Canegrate,45.565637239067485,8.924405786700499,canegrate
Carpiano,45.34426378424636,9.271493656381715,carpiano
Carugate,45.55072201396724,9.341743991994097,carugate
Casarile,45.31416826904516,9.102086754836533,casarile
Casorezzo,45.52644723100198,8.907319092505311,casorezzo
Cassano d'Adda,45.52687637435947,9.517690972922145,cassano d'adda
Cassina de' Pecchi,45.51574657368105,9.375228942857158,cassina de' pecchi
Cassinetta di Lugagnano,45.42644632065144,8.906759173110872,cassinetta di lugagnano
Castano Primo,45.550143410760406,8.766738626499896,castano primo
Cernusco sul Naviglio,45.52533043932644,9.332318832304924,cernusco sul naviglio
Cerro al Lambro,45.33221088533859,9.32667429231836,cerro al lambro
Cerro Maggiore,45.58983837246905,8.964832868603194,cerro maggiore
Cesano Boscone,45.44160095527986,9.087181016412895,cesano boscone
Cesate,45.5970080385139,9.079688821632832,cesate
Cinisello Balsamo,45.55736311628466,9.218240254653637,cinisello balsamo
Cisliano,45.43911651048629,8.986379245628978,cisliano
Cologno Monzese,45.53337262156905,9.280822949323273,cologno monzese
Colturano,45.38047467240165,9.339311860479455,colturano
Corbetta,45.460709249943335,8.929990018177245,corbetta
Cormano,45.543583873087066,9.16391177050128,cormano
Cornaredo,45.49189777313634,9.024214704691468,cornaredo
Corsico,45.43349610702885,9.101004691928447,corsico
Cuggiono,45.50441282517753,8.79896129067887,cuggiono
Cusago,45.446653805994686,9.029717172133257,cusago
Cusano Milanino,45.55263333334206,9.18459356391537,cusano milanino
Dairago,45.56454440407263,8.855204231127656,dairago
Dresano,45.37529584102893,9.364768487715011,dresano
Gaggiano,45.40062235317653,9.025586239506913,gaggiano
Garbagnate Milanese,45.57458330869857,9.077512055590928,garbagnate milanese
Gessate,45.55564103598645,9.433932751762317,gessate
Gorgonzola,45.529486405020705,9.409501584654352,gorgonzola
Grezzago,45.59138306934932,9.494917563288364,grezzago
Gudo Visconti,45.37753996763572,8.995985387609846,gudo visconti
Inveruno,45.517478905057466,8.85371077634691,inveruno
Inzago,45.541382914810306,9.48006405655514,inzago
Lacchiarella,45.321882006310304,9.158009540988546,lacchiarella
Lainate,45.565963889442855,9.025567962526557,lainate
Legnano,45.593157578341426,8.907392101890078,legnano
Liscate,45.475042395621095,9.411391484649561,liscate
Locate di Triulzi,45.357749917049055,9.228700048321873,locate di triulzi
Magenta,45.45276889912358,8.862041306153456,magenta
Magnago,45.57613159861257,8.809029287766942,magnago
Marcallo con Casone,45.486544103263775,8.869648306333342,marcallo con casone
Masate,45.56444982780368,9.462539739771088,masate
Mediglia,45.41004364923981,9.33753178909785,mediglia
Melegnano,45.35529508513687,9.319374355957823,melegnano
Melzo,45.49831236702368,9.425266485403991,melzo
Mesero,45.495520544466636,8.850322424049304,mesero
Milano,45.468236245442185,9.173219713160384,milano
Morimondo,45.34328542377746,8.955292124260666,morimondo
Motta Visconti,45.28426060232928,8.989237402145996,motta visconti
Nerviano,45.553256878057034,8.98050725962299,nerviano
Nosate,45.55400752682744,8.721222959450593,nosate
Novate Milanese,45.53151180776147,9.13971205004672,novate milanese
Noviglio,45.36311173879481,9.066852858431178,noviglio
Opera,45.37931112639265,9.208241284047006,opera
Ossona,45.505026131912814,8.899248271285817,ossona
Ozzero,45.36372312527812,8.921602445827101,ozzero
Paderno Dugnano,45.57200157837781,9.166070319114093,paderno dugnano
Pantigliate,45.44075647393488,9.360156713824253,pantigliate
Parabiago,45.54963592437949,8.943299944914473,parabiago
Paullo,45.41661000090503,9.404759583927039,paullo
Pero,45.51032115024178,9.077306625118055,pero
Peschiera Borromeo,45.44192267267327,9.303433368866273,peschiera borromeo
