nome,lat,lng
roma,41.8931,12.4828
milano,45.4642,9.1900
napoli,40.8518,14.2681
torino,45.0703,7.6869
palermo,38.1157,13.3615
bologna,44.4949,11.3426
firenze,43.7696,11.2558
genova,44.4056,8.9463
venezia,45.4408,12.3155
verona,45.4384,10.9916
brescia,45.5416,10.2118
padova,45.4064,11.8768
trieste,45.6495,13.7768
brescia,45.5416,10.2118
catania,37.5022,15.0873
modena,44.6471,10.9252
reggio emilia,44.6983,10.6312
parma,44.8015,10.3279
perugia,43.1107,12.3908
